Brand*,Store id,Name,Lat*,Lng*,Address1,Address2,City,State,Zip code,Country,Phone number,Fax number,Store hours,Time zone,Dma Code,Status*
Tryst,"",Tryst,42.4161949,-71.1551971,689 Massachusetts Ave,"",Arlington,MA,02476,US,7816412227,"","",EST,"",Active
Thorndike Field Dog Park,"",Thorndike Field Dog Park,42.3993440000257,-71.1447358131409,99 Margaret St,"",Arlington,MA,02474,US,,"","",EST,"",Active
Madrona Tree,"",Madrona Tree,42.4144554,-71.1502533,315 Broadway,"",Arlington,MA,02474,US,7818595551,"","",EST,"",Active
Sono Asian,"",Sono Asian,42.4277064,-71.1742079,471 Summer St,"",Arlington,MA,02474,US,7816488866,"","",EST,"",Active
Andrina's Pizzeria,"",Andrina's Pizzeria,42.42063626647,-71.1704803258181,1060 Massachusetts Ave,"",Arlington,MA,02476,US,7816484800,"","",EST,"",Active
Sabatino's Italian Kitchen,"",Sabatino's Italian Kitchen,42.4067612,-71.1439514,242 Massachusetts Ave,"",Arlington,MA,02476,US,7816464126,"","",EST,"",Active
Zhu,"",Zhu,42.4048527156341,-71.1414219932752,166 Massachusetts Ave,"",Arlington,MA,02474,US,7816467600,"","",EST,"",Active
Jimmy's Steer House,"",Jimmy's Steer House,42.4219437,-71.172493,1111 Massachusetts Ave,"",Arlington,MA,02476,US,7816464450,"","",EST,"",Active
Spy Pond,"",Spy Pond,42.4092626230695,-71.1494886875153,Pond Ln,"",Arlington,MA,02474,US,,"","",EST,"",Active
Flora Restaurant,"",Flora Restaurant,42.40535,-71.14227,190 Massachusetts Ave,"",Arlington,MA,02474,US,7816411664,"","",EST,"",Active
Scutra,"",Scutra,42.4190222471952,-71.1577854305506,92 Summer St,"",Arlington,MA,02474,US,7813161816,"","",EST,"",Active
Sweet Chili,"",Sweet Chili,42.4147356,-71.1518222,470-472 Massachusetts Ave,"",Arlington,MA,02474,US,7816462400,"","",EST,"",Active
Fresh Pond Seafood,"",Fresh Pond Seafood,42.4191246,-71.1566315,75 Summer St,"",Arlington,MA,02474,US,7817771784,"","",EST,"",Active
Gail Ann Coffee Shop,"",Gail Ann Coffee Shop,42.4150276,-71.1511154,10 Medford St,"",Arlington,MA,02474,US,7816489584,"","",EST,"",Active
Thai E-Sarn Cuisine,"",Thai E-Sarn Cuisine,42.4246254,-71.1843155,1377 Massachusetts Ave,"",Arlington,MA,02476,US,7816482223,"","",EST,"",Active
Kickstand Cafe,"",Kickstand Cafe,42.4149971,-71.1524429,594 Massachusetts Ave,"",Arlington,MA,02476,US,7815836110,"","",EST,"",Active
Boyles Market,"",Boyles Market,42.4087923020124,-71.1376889795065,64 Broadway,"",Arlington,MA,02474,US,7816461188,"","",EST,"",Active
Ristorante Olivio,"",Ristorante Olivio,42.4060259,-71.1423496,201 Mass Ave,"",Arlington,MA,02474,US,7816482300,"","",EST,"",Active
Mr Sushi,"",Mr Sushi,42.4162253200321,-71.1553573608398,693 Massachusetts Ave,"",Arlington,MA,02474,US,7816434173,"","",EST,"",Active
My Brother's Place,"",My Brother's Place,42.4116,-71.1432899,181 Broadway,"",Arlington,MA,02474,US,7816460110,"","",EST,"",Active
MKC Associates Home Inspection,"",MKC Associates Home Inspection,42.421505,-71.165367,20 Brattle Pl,"",Arlington,MA,02474,US,8886524677,"","",EST,"",Active
Szechuan's Dumpling,"",Szechuan's Dumpling,42.4242811803008,-71.1839634288361,1360 Massachusetts Ave,"",Arlington,MA,02476,US,7816488882,"","",EST,"",Active
Maria's Pizzeria and Subs,"",Maria's Pizzeria and Subs,42.402675524354,-71.1384607851505,86 Massachusetts Ave,"",Arlington,MA,02474,US,7816488011,"","",EST,"",Active
Intelligent Labor & Moving,"",Intelligent Labor & Moving,42.425357,-71.17464,18 Beck Rd,"",Arlington,MA,02476,US,6178640620,"","",EST,"",Active
Villa House of Pizza,"",Villa House of Pizza,42.4246282,-71.1844194,1367 Massachusetts Ave,"",Arlington,MA,02476,US,7816460202,"","",EST,"",Active
Fusion Taste,"",Fusion Taste,42.4144325,-71.150177,303 Broadway,"",Arlington,MA,02474,US,7816412388,"","",EST,"",Active
Not Your Average Joe's,"",Not Your Average Joe's,42.4160232543945,-71.1537551879883,645 Mass Ave,"",Arlington,MA,02476,US,7816431666,"","",EST,"",Active
Retro Burger & Ice Cream,"",Retro Burger & Ice Cream,42.4166538,-71.1586243,795 Massachusetts Ave,"",Arlington,MA,02476,US,7817772139,"","",EST,"",Active
Thailand Cafe,"",Thailand Cafe,42.4049808830023,-71.1411684751511,161 Massachusetts Ave,"",Arlington,MA,02474,US,7816430296,"","",EST,"",Active
Penzey's Spices,"",Penzey's Spices,42.4243622,-71.1812592,1293 Massachusetts Ave,"",Arlington,MA,02474,US,7816467707,"","",EST,"",Active
Classic Cafe,"",Classic Cafe,42.4243216216564,-71.1824423074722,1313 Massachusetts Ave,"",Arlington,MA,02476,US,7816467871,"","",EST,"",Active
Menotomy Grill and Tavern,"",Menotomy Grill and Tavern,42.4016419,-71.136934,25 Massachusetts Ave,"",Arlington,MA,02474,US,7816481775,"","",EST,"",Active
Capri Pizza & Subs,"",Capri Pizza & Subs,42.4241201402142,-71.1829052328491,1323 Massachusetts Ave,"",Arlington,MA,02476,US,7816465440,"","",EST,"",Active
Punjabi Tadka,"",Punjabi Tadka,42.4144349992275,-71.1511731147766,444 Massachusetts Ave,"",Arlington,MA,02474,US,7816489500,"","",EST,"",Active
Olympic Pizza House,"",Olympic Pizza House,42.4053307,-71.1413422,173 Massachusetts Ave,"",Arlington,MA,02474,US,7816436131,"","",EST,"",Active
Shanghai Village,"",Shanghai Village,42.4142532,-71.1511002,434 Massachusetts Ave,"",Arlington,MA,02474,US,7816466897,"","",EST,"",Active
Arlington Restaurant and Diner,"",Arlington Restaurant and Diner,42.4040059000254,-71.1401009559631,134 Massachusetts Ave,"",Arlington,MA,02474,US,7816469266,"","",EST,"",Active
Comella's,"",Comella's,42.405753934945,-71.142528718998,202 Massachusetts Ave,"",Arlington,MA,02474,US,7816463000,"","",EST,"",Active
Bruce's Tire and Service Co,"",Bruce's Tire and Service Co,42.4207898229361,-71.1661069840193,36 Dudley St,"",Arlington,MA,02476,US,7816487622,"","",EST,"",Active
Robbins Library,"",Robbins Library,42.415712427152,-71.155162994214,700 Massachusetts Ave,"",Arlington,MA,02474,US,7813163200,"","",EST,"",Active
Common Ground,"",Common Ground,42.414463,-71.1502686,319 Broadway,"",Arlington,MA,02474,US,7817280060,"","",EST,"",Active
Infinity Beauty Salon,"",Infinity Beauty Salon,42.4049464,-71.1412511,164 Massachusetts Ave,"",Arlington,MA,02474,US,7816467269,"","",EST,"",Active
Quebrada Baking Co,"",Quebrada Baking Co,42.4060088396072,-71.1426617950201,208 Massachusetts Ave,"",Arlington,MA,02474,US,7816480700,"","",EST,"",Active
Derby Farm Flowers & Gardens,"",Derby Farm Flowers & Gardens,42.4061,-71.142993,218 Massachusetts Ave,"",Arlington,MA,02474,US,7816430842,"","",EST,"",Active
Bagels by Us,"",Bagels by Us,42.4166412,-71.1583633,789 Massachusetts Ave,"",Arlington,MA,02476,US,7816462662,"","",EST,"",Active
Mini Moves & More,"",Mini Moves & More,42.4197349362102,-71.1522402052796,"Arlington, MA 02474","",Arlington,MA,02474,US,7816469000,"","",EST,"",Active
The Book Rack,"",The Book Rack,42.4149513,-71.1505737,13 Medford St,"",Arlington,MA,02474,US,7816462665,"","",EST,"",Active
Balich 5 & 10,"",Balich 5 & 10,42.4242277443409,-71.1823618412018,1314 Massachusetts Ave,"",Arlington,MA,02476,US,7816483707,"","",EST,"",Active
T C Jewelers,"",T C Jewelers,42.4145389348269,-71.1513065546751,456 Massachusetts Ave,"",Arlington,MA,02474,US,7816462221,"","",EST,"",Active
Lakota Bakery,"",Lakota Bakery,42.424618847415,-71.184157981676,1373 Massachusetts Ave,"",Arlington,MA,02476,US,7816460121,"","",EST,"",Active
Pro-Tech Consultants Home Inspections,"",Pro-Tech Consultants Home Inspections,42.4151306152344,-71.1767044067383,Arlington Heights,"",Arlington,MA,02476,US,7816436300,"","",EST,"",Active
Starbucks,"",Starbucks,42.414740473312,-71.150985344363,327 Broadway,"",Arlington,MA,02474,US,7816412893,"","",EST,"",Active
J&L Hair Studio,"",J&L Hair Studio,42.4243529,-71.1823883,1371 Mass Ave,"",Arlington,MA,02476,US,7816434643,"","",EST,"",Active
Sun's Kitchen,"",Sun's Kitchen,42.42568,-71.18144,90 Lowell St,"",Arlington,MA,02474,US,7816483388,"","",EST,"",Active
Biba's Baked Goods,"",Biba's Baked Goods,42.4151306152344,-71.1767044067383,Arlington Heights,"",Arlington,MA,02476,US,7818596222,"","",EST,"",Active
Arlington Chiropractic,"",Arlington Chiropractic,42.41465,-71.1538086,42 Pleasant St,"",Arlington,MA,02476,US,7816484000,"","",EST,"",Active
Camilla's Bridal,"",Camilla's Bridal,42.4161453,-71.1548233,673 Massachusetts Ave,"",Arlington,MA,02474,US,7816411300,"","",EST,"",Active
The Arlington Cafe,"",The Arlington Cafe,42.4277318,-71.1742372,475 Summer St,"",Arlington,MA,02474,US,7814833020,"","",EST,"",Active
Amaze Escape,"",Amaze Escape,42.416675567627,-71.1562423706055,7 Central St,"",Arlington,MA,02476,US,6178009945,"","",EST,"",Active
Capitol Theatre,"",Capitol Theatre,42.405777,-71.142808,204 Massachusetts Ave,"",Arlington,MA,02474,US,7816484340,"","",EST,"",Active
VCA City Cats Hospital,"",VCA City Cats Hospital,42.4160121381283,-71.1543468385935,665 Massachusetts Ave,"",Arlington,MA,02476,US,7816413673,"","",EST,"",Active
Sports Etc,"",Sports Etc,42.4243055284023,-71.1820533871651,1303 Massachusetts Ave,"",Arlington,MA,02476,US,7816461600,"","",EST,"",Active
Elton's Roast Beef and Pizza,"",Elton's Roast Beef and Pizza,42.414930537343,-71.1520320922136,478 Massachusetts Ave,"",Arlington,MA,02474,US,7816468900,"","",EST,"",Active
Great Wok,"",Great Wok,42.4234975129366,-71.17506287992,1181 Massachusetts Ave,"",Arlington,MA,02476,US,7816488998,"","",EST,"",Active
Sugo Cucina Italiana,"",Sugo Cucina Italiana,42.40484,-71.14131,162 Massachusetts Ave,"",Arlington,MA,02474,US,7816480005,"","",EST,"",Active
Precision Tire and Alignment,"",Precision Tire and Alignment,42.4240112,-71.1767502,1211 Massachusetts Avenue,"",Arlington,MA,02476,US,7816438473,"","",EST,"",Active
Play Time,"",Play Time,42.4140701,-71.148613,283 Broadway,"",Arlington,MA,02474,US,7816483230,"","",EST,"",Active
Arlington Animal Clinic,"",Arlington Animal Clinic,42.4117889,-71.1436462,191 Broadway,"",Arlington,MA,02474,US,7816460758,"","",EST,"",Active
Stella's Hair Salon,"",Stella's Hair Salon,42.4032951146364,-71.1391950398684,110 Massachusetts Ave,"",Arlington,MA,02474,US,7816481900,"","",EST,"",Active
"Big Foot Moving & Storage, Inc.","","Big Foot Moving & Storage, Inc.",42.4252338372854,-71.1810153936401,30 Park Ave,"",Arlington,MA,02476,US,7814883090,"","",EST,"",Active
Anthony's Barber Styling,"",Anthony's Barber Styling,42.404589,-71.141177,160A Massachusetts Ave,"",Arlington,MA,02474,US,7816460990,"","",EST,"",Active
Sringar Hair Design,"",Sringar Hair Design,42.4123,-71.148407,369 Massachusetts Ave,"",Arlington,MA,02474,US,7816488200,"","",EST,"",Active
Bagelville,"",Bagelville,42.424243,-71.1853299,1398 Massachusetts Ave,"",Arlington,MA,02476,US,7814833900,"","",EST,"",Active
Chilly Cow of Boston,"",Chilly Cow of Boston,42.414913259711,-71.151336017184,451 Massachusetts Ave,"",Arlington,MA,02474,US,7816484360,"","",EST,"",Active
Ma Cherie Studios,"",Ma Cherie Studios,42.4148798,-71.1745579,Arlington Heights,"",Arlington,MA,02476,US,8572440117,"","",EST,"",Active
Helen Nails,"",Helen Nails,42.411068,-71.1482925,346 Massachusetts Ave,"",Arlington,MA,02474,US,7816488883,"","",EST,"",Active
The Little Fox Shop,"",The Little Fox Shop,42.40558,-71.1416,Fox Library,"",Arlington,MA,02474,US,7813163157,"","",EST,"",Active
May's Nail Design,"",May's Nail Design,42.4051807075739,-71.1414232850075,163 Massachusetts Ave,"",Arlington,MA,02474,US,7816437502,"","",EST,"",Active
Willow Baby Studios,"",Willow Baby Studios,42.403259,-71.139069,Magnolia St,"",Arlington,MA,02474,US,6174800387,"","",EST,"",Active
A1 Automotive Repair,"",A1 Automotive Repair,42.420437,-71.166122,39 Dudley St,"",Arlington,MA,02476,US,7813162886,"","",EST,"",Active
Robin's Nest Pet Salon,"",Robin's Nest Pet Salon,42.4188090115786,-71.167459487915,4 Mt Vernon St,"",Arlington,MA,02476,US,3393687277,"","",EST,"",Active
M.Y. Salon and Day Spa,"",M.Y. Salon and Day Spa,42.4243851,-71.1819534,1309 Massachusetts Ave,"",Arlington,MA,02476,US,7816481199,"","",EST,"",Active
Starbucks,"",Starbucks,42.425293,-71.18853,1465 Massachusetts Ave,"",Arlington,MA,02476,US,7816469366,"","",EST,"",Active
Gibbons Electric,"",Gibbons Electric,42.411732,-71.143456,189 Broadway,"",Arlington,MA,02474,US,7816487771,"","",EST,"",Active
Dudley Street Auto Body,"",Dudley Street Auto Body,42.420437,-71.166122,34 Dudley St,"",Arlington,MA,02476,US,7816480805,"","",EST,"",Active
Tony's All-Sport Barbershop,"",Tony's All-Sport Barbershop,42.4058401,-71.1421039,191 Massachusetts Ave,"",Arlington,MA,02474,US,7813160333,"","",EST,"",Active
Arlington Global,"",Arlington Global,42.410561,-71.148201,334 Massachusetts Ave,"",Arlington,MA,02474,US,7816489878,"","",EST,"",Active
Cambridge Typewriter Company,"",Cambridge Typewriter Company,42.4031060189009,-71.1389710754156,102 Massachusetts Ave,"",Arlington,MA,02474,US,7816437010,"","",EST,"",Active
PRIME Your Trusted Butcher,"",PRIME Your Trusted Butcher,42.4243547,-71.1851859,1398 Massachussets Ave,"",Arlington,MA,02476,US,7816431100,"","",EST,"",Active
"Lisa Desrosiers, M.Ac, L.Ac.","","Lisa Desrosiers, M.Ac, L.Ac.",42.4052773,-71.1418762,Davis Square Acupuncture,"",Arlington,MA,02474,US,6175488167,"","",EST,"",Active
Greg Digiorgio - Re/Max Leading Edge,"",Greg Digiorgio - Re/Max Leading Edge,42.4101333618164,-71.1471939086914,319 Massachusetts Ave,"",Arlington,MA,02474,US,6172334530,"","",EST,"",Active
Fabric Corner,"",Fabric Corner,42.4166717529297,-71.1581726074219,783 Massachusetts Ave,"",Arlington,MA,02476,US,7816434040,"","",EST,"",Active
Menotomy Beer & Wine,"",Menotomy Beer & Wine,42.4091415,-71.1386642,80 Broadway,"",Arlington,MA,02474,US,7816460889,"","",EST,"",Active
Tiki-In,"",Tiki-In,42.4051988124847,-71.1414460837841,165 Massachusetts Ave,"",Arlington,MA,02474,US,7816464988,"","",EST,"",Active
Something Sweet Without Wheat,"",Something Sweet Without Wheat,42.4052456,-71.1415783,169 Massachusetts Ave,"",Arlington,MA,02474,US,7817771451,"","",EST,"",Active
Dorian Color Lab,"",Dorian Color Lab,42.418156,-71.158012,24 Mill Street,"",Arlington,MA,02476,US,7816488040,"","",EST,"",Active
Wild Child,"",Wild Child,42.41338887031,-71.149445420524,5 Medford St,"",Arlington,MA,02474,US,7814833566,"","",EST,"",Active
DrumConnection,"",DrumConnection,42.4054302,-71.1418093,177 Massachusetts Ave,"",Arlington,MA,02474,US,7813168068,"","",EST,"",Active
The Bike Stop,"",The Bike Stop,42.4211388,-71.1665268,43R Dudley St,"",Arlington,MA,02476,US,7816467867,"","",EST,"",Active
Maxima Center,"",Maxima Center,42.4060135,-71.1428146,212 Massachusetts Ave,"",Arlington,MA,02474,US,7816466835,"","",EST,"",Active
Road Warrior Moving & Storage,"",Road Warrior Moving & Storage,42.424705,-71.180053,50 Lowell St,"",Arlington,MA,02476,US,7816462300,"","",EST,"",Active
Boyle's Body Works,"",Boyle's Body Works,42.408299446106,-71.1336596310139,29 Sunnyside Ave,"",Arlington,MA,02474,US,7816413441,"","",EST,"",Active
Jimmy's Pizzeria,"",Jimmy's Pizzeria,42.4252396,-71.1907883,1510 Massachusetts Avenue,"",Arlington,MA,02476,US,7816469100,"","",EST,"",Active
Family Practice Group,"",Family Practice Group,42.4166035,-71.1544883,11 Water St,"",Arlington,MA,02476,US,7816489700,"","",EST,"",Active
Allure Hair Studio,"",Allure Hair Studio,42.4151994865896,-71.1519752854483,477 Mass Ave,"",Arlington,MA,02474,US,7816462935,"","",EST,"",Active
PDDC Arlington MA Doggie Day Camp,"",PDDC Arlington MA Doggie Day Camp,42.423824,-71.174606,5 Forest St,"",Arlington,MA,02476,US,7816417900,"","",EST,"",Active
Alterations By Violette,"",Alterations By Violette,42.4221879243851,-71.1735085397959,10 Fessenden Rd,"",Arlington,MA,02476,US,3399701355,"","",EST,"",Active
R W Shattuck & Company,"",R W Shattuck & Company,42.418156,-71.158012,24 Mill St,"",Arlington,MA,02476,US,7816430114,"","",EST,"",Active
Mami Hair Salon,"",Mami Hair Salon,42.4057121,-71.1419601,179 Massachusetts Ave,"",Arlington,MA,02474,US,7816481880,"","",EST,"",Active
13Forest Gallery,"",13Forest Gallery,42.4051977,-71.1415416,167A Massachusetts Ave,"",Arlington,MA,02474,US,7816413333,"","",EST,"",Active
East Coast Chip Keys,"",East Coast Chip Keys,42.4032631,-71.138855,107 Massachusetts Ave,"",Arlington,MA,02474,US,7812141145,"","",EST,"",Active
Arlington House of Pizza,"",Arlington House of Pizza,42.4167053,-71.1588049,797 Massachusetts Ave,"",Arlington,MA,02474,US,7816465016,"","",EST,"",Active
Frank Formica Plumbing Service,"",Frank Formica Plumbing Service,42.4163599720829,-71.1563873291016,6 Grove St Pl,"",Arlington,MA,02476,US,6175380422,"","",EST,"",Active
Henry Bear's Park,"",Henry Bear's Park,42.4163398742676,-71.1552200317383,685 Massachusetts Ave,"",Arlington,MA,02476,US,7816469400,"","",EST,"",Active
"Roy E Baker, OD","","Roy E Baker, OD",42.4158398061991,-71.1583533883095,11 Jason St,"",Arlington,MA,02474,US,7816483420,"","",EST,"",Active
Arlington Shoe Repair,"",Arlington Shoe Repair,42.4166337400675,-71.1589092761278,803 Massachusetts Ave,"",Arlington,MA,02476,US,7817771576,"","",EST,"",Active
The Computer Cafe,"",The Computer Cafe,42.4140334,-71.1508185,430 Massachusetts Ave,"",Arlington,MA,02474,US,7812189838,"","",EST,"",Active
Metrosexual Movers,"",Metrosexual Movers,42.403656,-71.13797,21 Lee Ter. #2,"",Arlington,MA,02474,US,7813168344,"","",EST,"",Active
A & A Delicatessen,"",A & A Delicatessen,42.4204229,-71.1702163,1042 Massachusetts Ave,"",Arlington,MA,02476,US,7816438175,"","",EST,"",Active
Lucky Dragon,"",Lucky Dragon,42.415020391345,-71.150967925787,14 Medford St,"",Arlington,MA,02474,US,7816488858,"","",EST,"",Active
Lovett Plumbing & Heating,"",Lovett Plumbing & Heating,42.4205866456032,-71.1955864727497,177 Sylvia St,"",Arlington,MA,02476,US,7813168100,"","",EST,"",Active
Salon 221,"",Salon 221,42.4137887,-71.1453855,88 Warren St,"",Arlington,MA,02474,US,7816458361,"","",EST,"",Active
Ink Jam Tattoo,"",Ink Jam Tattoo,42.4258156,-71.1818161,12 Park Ave,"",Arlington,MA,02474,US,7813162393,"","",EST,"",Active
Something Savory Catering,"",Something Savory Catering,42.4245,-71.18316,1337 Massachusetts Ave,"",Arlington,MA,02476,US,7816480333,"","",EST,"",Active
J & D Cleaners,"",J & D Cleaners,42.40419,-71.140625,144 Massachusetts Ave,"",Arlington,MA,02474,US,7816431356,"","",EST,"",Active
Arlington Acupuncture Wellness,"",Arlington Acupuncture Wellness,42.4032326,-71.1388092,99 Mass Ave,"",Arlington,MA,02474,US,7818880101,"","",EST,"",Active
Water House Wellness,"",Water House Wellness,42.4160805,-71.1574402,742 Massachusetts Ave,"",Arlington,MA,02476,US,7816434400,"","",EST,"",Active
Jennifer Edmunds Massage,"",Jennifer Edmunds Massage,42.4130707,-71.1555481,94 Pleasant St,"",Arlington,MA,02476,US,6172942733,"","",EST,"",Active
Fantasy Nails,"",Fantasy Nails,42.405522,-71.1421985,198 Massachusetts Ave,"",Arlington,MA,02474,US,7816465493,"","",EST,"",Active
Rg Pro Laser,"",Rg Pro Laser,42.4155083,-71.1528931,7 Mystic St,"",Arlington,MA,02474,US,7816484400,"","",EST,"",Active
Park West Salon,"",Park West Salon,42.425648,-71.181557,90 Lowell St,"",Arlington,MA,02474,US,7816469378,"","",EST,"",Active
Giles Wine & Spirits,"",Giles Wine & Spirits,42.4043083,-71.140007,137 Massachusetts Ave,"",Arlington,MA,02474,US,7816463500,"","",EST,"",Active
Christo's Fruit Market,"",Christo's Fruit Market,42.405631123899,-71.142337540009,200 Massachusetts Ave,"",Arlington,MA,02474,US,7816410695,"","",EST,"",Active
Sedona Sun Day Spa,"",Sedona Sun Day Spa,42.4241829,-71.1777573,1241 Massachusetts Ave,"",Arlington,MA,02476,US,7816431909,"","",EST,"",Active
Jacqui's Design Group Salon,"",Jacqui's Design Group Salon,42.413544,-71.149055,280 Broadway,"",Arlington,MA,02474,US,7816460722,"","",EST,"",Active
Mosaic Oasis Studio & Supply,"",Mosaic Oasis Studio & Supply,42.4237003,-71.1754542,1189B Massachusetts Ave,"",Arlington,MA,02474,US,7813161667,"","",EST,"",Active
Benezra Boxes,"",Benezra Boxes,42.4204254150391,-71.1566619873047,"Arlington, MA 02474","",Arlington,MA,02474,US,7816468734,"","",EST,"",Active
Tone With Rindone,"",Tone With Rindone,42.405076,-71.141737,180 Massachusetts Ave,"",Arlington,MA,02476,US,7813677373,"","",EST,"",Active
Petalena,"",Petalena,42.4159431,-71.1521301,25 Mystic St,"",Arlington,MA,02474,US,9788840868,"","",EST,"",Active
Pravaha Energy Healing and Insight,"",Pravaha Energy Healing and Insight,42.4117387086153,-71.1484312266111,361 Massachusetts Ave,"",Arlington,MA,02474,US,8578918659,"","",EST,"",Active
Bayles Removal Unlimited,"",Bayles Removal Unlimited,42.4232158,-71.1537637,"Arlington, MA 02474","",Arlington,MA,02474,US,9787616699,"","",EST,"",Active
Dunkin' Donuts,"",Dunkin' Donuts,42.423958,-71.178436,1234 Massachusetts Ave,"",Arlington,MA,02476,US,7816489681,"","",EST,"",Active
Arlington Farmers Market,"",Arlington Farmers Market,42.4154701,-71.1532135,Pleasant St & Massachusetts Ave,"",Arlington,MA,02474,US,,"","",EST,"",Active
Fitness Together,"",Fitness Together,42.4079628288746,-71.1357517540455,37 Broadway,"",Arlington,MA,02474,US,7813168500,"","",EST,"",Active
Devin Dobbins Photography,"",Devin Dobbins Photography,42.4151306152344,-71.1767044067383,Arlington Heights,"",Arlington,MA,02476,US,3392937480,"","",EST,"",Active
Sprint Dealer - Premier Store,"",Sprint Dealer - Premier Store,42.414874881506,-71.1514614522457,457 Massachusetts Ave,"",Arlington,MA,02474,US,7816529606,"","",EST,"",Active
Artwear,"",Artwear,42.4057030677795,-71.1421072483063,189 Massachusetts Ave,"",Arlington,MA,02474,US,7816480900,"","",EST,"",Active
Arlington Vision Center,"",Arlington Vision Center,42.4052773,-71.1418762,180 Massachusetts Avenue,"",Arlington,MA,02474,US,7816467776,"","",EST,"",Active
Kate Ruma & Associates Acupuncture,"",Kate Ruma & Associates Acupuncture,42.4052773,-71.1418762,180 Massachusetts Ave,"",Arlington,MA,02474,US,6173723960,"","",EST,"",Active
Grace Nail & Spa,"",Grace Nail & Spa,42.414978,-71.1514587,463 Massachusettes Ave,"",Arlington,MA,02474,US,7816466000,"","",EST,"",Active
Gracie J's Boutique,"",Gracie J's Boutique,42.4204254150391,-71.1566619873047,"Arlington, MA 02474","",Arlington,MA,02474,US,,"","",EST,"",Active
Cambridge Savings Bank,"",Cambridge Savings Bank,42.415242760553,-71.1530918926257,626 Massachusetts Ave,"",Arlington,MA,02476,US,6178648700,"","",EST,"",Active
Helena's,"",Helena's,42.4135551452637,-71.149284362793,397 Massachusetts Ave,"",Arlington,MA,02474,US,7814833055,"","",EST,"",Active
Synergy Acupuncture,"",Synergy Acupuncture,42.4119606,-71.148819,366 Massachusetts Ave,"",Arlington,MA,02474,US,6178263422,"","",EST,"",Active
Mass BJJ - Arlington,"",Mass BJJ - Arlington,42.4014091,-71.1371155,26 Massachusetts Ave,"",Arlington,MA,02474,US,7816480405,"","",EST,"",Active
Arlington Medical Aesthetics,"",Arlington Medical Aesthetics,42.4172915518284,-71.1578652262688,22 Mill St,"",Arlington,MA,02476,US,7816485334,"","",EST,"",Active
Trader Joe's,"",Trader Joe's,42.425495966219,-71.188530759375,1427 Massachusetts Ave,"",Arlington,MA,02476,US,7816469138,"","",EST,"",Active
Arlington Appliance,"",Arlington Appliance,42.4204254150391,-71.1566619873047,"Arlington, MA 02474","",Arlington,MA,02474,US,7816461815,"","",EST,"",Active
Doughty & Sons,"",Doughty & Sons,42.4204254150391,-71.1566619873047,"Arlington, MA 02474","",Arlington,MA,02474,US,7816463296,"","",EST,"",Active
Black Crow Yoga,"",Black Crow Yoga,42.4118426442146,-71.144128292799,201 Broadway,"",Arlington,MA,02474,US,3393687315,"","",EST,"",Active
Verve Fit,"",Verve Fit,42.4244995,-71.1831589,1337 Massachusetts Ave,"",Arlington,MA,02476,US,6172401772,"","",EST,"",Active
Terra Nostra Hand Crafted Jewelry,"",Terra Nostra Hand Crafted Jewelry,42.4110687211012,-71.1481475830078,348 Massachusetts Ave,"",Arlington,MA,02474,US,7816480119,"","",EST,"",Active
Horizons Salon & Day Spa,"",Horizons Salon & Day Spa,42.4241943,-71.1832733,1340 Massachusetts Ave,"",Arlington,MA,02474,US,7816466730,"","",EST,"",Active
Regent Theatre,"",Regent Theatre,42.4148661643267,-71.1510148644447,7 Medford St,"",Arlington,MA,02474,US,7816464849,"","",EST,"",Active
Spray Pool,"",Spray Pool,42.4115562,-71.1379471,Thompson School,"",Arlington,MA,02474,US,,"","",EST,"",Active
Ken's Appliance Service and Dryer Venting,"",Ken's Appliance Service and Dryer Venting,42.4162902832031,-71.1567611694336,Arlington Center,"",Arlington,MA,,US,5088163093,"","",EST,"",Active
Dunkin' Donuts,"",Dunkin' Donuts,42.4121361,-71.1485443,369 Mass Ave,"",Arlington,MA,02474,US,7816481681,"","",EST,"",Active
Homewood Suites By Hilton Hotel/Boston-Cambridge-Arlington,"",Homewood Suites By Hilton Hotel/Boston-Cambridge-Arlington,42.4011686525746,-71.1360232674591,1 Massachusetts Ave,"",Arlington,MA,02474,US,7816437258,"","",EST,"",Active
McClennen Park,"",McClennen Park,42.4322886619243,-71.1820264377554,664 Summer St,"",Arlington,MA,02474,US,,"","",EST,"",Active
Arlington Motor Mart,"",Arlington Motor Mart,42.4118881,-71.1499786,20 Pond Ln,"",Arlington,MA,02474,US,7816431000,"","",EST,"",Active
Arlington Centered,"",Arlington Centered,42.4211755729321,-71.1567306518555,487 Massachusetts Ave,"",Arlington,MA,02474,US,7816436700,"","",EST,"",Active
Luv and Other Gifts,"",Luv and Other Gifts,42.4058009,-71.1418935,189 Massachusetts Ave,"",Arlington,MA,02474,US,6178355793,"","",EST,"",Active
John Does Hair,"",John Does Hair,42.4056219309568,-71.1425484716892,4 Lake St,"",Arlington,MA,02474,US,7815349288,"","",EST,"",Active
J R Burke Salon,"",J R Burke Salon,42.4160385,-71.1541138,659 Massachusetts Ave,"",Arlington,MA,02476,US,7816413800,"","",EST,"",Active
Unleashed by Petco,"",Unleashed by Petco,42.424454,-71.185799,1406 Massachusetts Avenue,"",Arlington,MA,02476,US,7814833031,"","",EST,"",Active
Arlington Bait & Tackle,"",Arlington Bait & Tackle,42.4025917,-71.1385117,84 Massachusetts Ave,"",Arlington,MA,02474,US,7816465598,"","",EST,"",Active
Capitol Creamery,"",Capitol Creamery,42.4058244377375,-71.1424304544926,204 Massachusetts Ave,"",Arlington,MA,02474,US,7816484340,"","",EST,"",Active
Ranch Roofing,"",Ranch Roofing,42.4155031,-71.1520997,1191 Mass Ave,"",Arlington,MA,02474,US,8007713938,"","",EST,"",Active
Ronald A Riesz,"",Ronald A Riesz,42.4145047366619,-71.1512616276741,452 Massachusetts Ave,"",Arlington,MA,02474,US,7816437325,"","",EST,"",Active
Meineke Car Care Center,"",Meineke Car Care Center,42.40121,-71.137142,22 Massachusetts Avenue,"",Arlington,MA,02474,US,7816488670,"","",EST,"",Active
ChiroCare Associates,"",ChiroCare Associates,42.413433,-71.150246,406 Massachusetts Ave,"",Arlington,MA,02474,US,7814883388,"","",EST,"",Active
Arlington Package Express,"",Arlington Package Express,42.4112663,-71.1484146,350 Massachusetts Ave,"",Arlington,MA,02474,US,7816480602,"","",EST,"",Active
The Grecian Jeweler,"",The Grecian Jeweler,42.4160999804735,-71.1520589143038,27 Mystic St,"",Arlington,MA,02474,US,7816486782,"","",EST,"",Active
Arlington Reservoir Beach,"",Arlington Reservoir Beach,42.4282443515377,-71.1865356937051,Lowell Street,"",Arlington,MA,,US,,"","",EST,"",Active
"Upholstery on Broadway, Inc.","","Upholstery on Broadway, Inc.",42.4120865,-71.1444855,205 A Broadway,"",Arlington,MA,02474,US,7816466708,"","",EST,"",Active
Star Nails,"",Star Nails,42.4242364615202,-71.1825656890869,1320 Massachusetts Ave,"",Arlington,MA,02476,US,7816480478,"","",EST,"",Active
Go Play!,"",Go Play!,42.4203734099865,-71.1699646711349,1046 Massachusetts Ave,"",Arlington,MA,02476,US,7813256088,"","",EST,"",Active
Isbister Acupuncture,"",Isbister Acupuncture,42.41307,-71.155546,94 Pleasant St,"",Arlington,MA,02476,US,5186691233,"","",EST,"",Active
Nitya Rao Photography,"",Nitya Rao Photography,42.417491,-71.146308,107 Medford St,"",Arlington,MA,02474,US,9786063511,"","",EST,"",Active
Fitness First,"",Fitness First,42.4152298,-71.1515121,471 Massachusetts Ave,"",Arlington,MA,02474,US,7816434300,"","",EST,"",Active
Wanamaker Hardware True Value,"",Wanamaker Hardware True Value,42.42403,-71.181496,1298 Massachusetts Ave,"",Arlington,MA,02476,US,7816431900,"","",EST,"",Active
Subway,"",Subway,42.4160255491734,-71.1544393748045,669 Massachusetts Ave,"",Arlington,MA,02476,US,,"","",EST,"",Active
Arlington Orthodontics,"",Arlington Orthodontics,42.416355,-71.158996,800 Massachusetts Ave,"",Arlington,MA,02476,US,7817772559,"","",EST,"",Active
Massagecure,"",Massagecure,42.4204254150391,-71.1566619873047,366 Mass Ave,"",Arlington,MA,02474,US,6175107382,"","",EST,"",Active
Dunkin' Donuts,"",Dunkin' Donuts,42.4194185435772,-71.1527978628874,21 Summer St,"",Arlington,MA,02474,US,7816489527,"","",EST,"",Active
Sharona Jacobs Photography,"",Sharona Jacobs Photography,42.4204254150391,-71.1566619873047,"Arlington, MA 02474","",Arlington,MA,02474,US,6178522366,"","",EST,"",Active
The Bar-B-Que Barn,"",The Bar-B-Que Barn,42.42062,-71.1674881,9 Dudley St Pl,"",Arlington,MA,02476,US,7816468473,"","",EST,"",Active
T L Nails & Spa,"",T L Nails & Spa,42.4143677,-71.1512451,448 Massachusetts Ave.,"",Arlington,MA,02474,US,7816466089,"","",EST,"",Active
Digumm's Ice Cream and Sandwiches,"",Digumm's Ice Cream and Sandwiches,42.4241939,-71.1828934,1328 Massachusetts Ave,"",Arlington,MA,02476,US,7816489892,"","",EST,"",Active
Quad Cycles,"",Quad Cycles,42.4205284,-71.1697769,1043 Massachusetts Ave,"",Arlington,MA,02476,US,7816485222,"","",EST,"",Active
Wish Salon & Spa,"",Wish Salon & Spa,42.4166374,-71.1583252,783 Massachusetts Ave,"",Arlington,MA,02476,US,7816413759,"","",EST,"",Active
Domino's Pizza,"",Domino's Pizza,42.4160268902779,-71.1544809490442,671 Massachusetts Ave,"",Arlington,MA,02476,US,7816432300,"","",EST,"",Active
Lalicata Landscape Products,"",Lalicata Landscape Products,42.424881,-71.1735382,33 Ryder St,"",Arlington,MA,02476,US,7816468580,"","",EST,"",Active
Mass Ave BP,"",Mass Ave BP,42.409409,-71.14637,295 Massachusetts Ave,"",Arlington,MA,02474,US,7816481939,"","",EST,"",Active
Arlington Bakery,"",Arlington Bakery,42.4056896567345,-71.1420884728432,187 Massachusetts Ave,"",Arlington,MA,02474,US,7816467444,"","",EST,"",Active
North Bridge Vein Care,"",North Bridge Vein Care,42.4172915518284,-71.1578652262688,22 Mill St,"",Arlington,MA,02476,US,7814883110,"","",EST,"",Active
"Patricia MacHalinski, DMD, PC","","Patricia MacHalinski, DMD, PC",42.423282623291,-71.1755065917969,1188 Massachusetts Ave,"",Arlington,MA,02476,US,7816413661,"","",EST,"",Active
Together in Motion,"",Together in Motion,42.4077187,-71.1340637,1 Broadway,"",Arlington,MA,02474,US,7816431377,"","",EST,"",Active
Park Ave Citgo Service,"",Park Ave Citgo Service,42.425564,-71.182426,19 Park Avenue,"",Arlington,MA,02474,US,7816489875,"","",EST,"",Active
"Esbah Fariba, DMD","","Esbah Fariba, DMD",42.4175911,-71.1579132,Arlington Dental Group,"",Arlington,MA,02476,US,7816437788,"","",EST,"",Active
Pierre's & Sophia's Tailoring,"",Pierre's & Sophia's Tailoring,42.4049091339111,-71.1412442475557,160 Massachusetts Ave,"",Arlington,MA,02474,US,7816431375,"","",EST,"",Active
Alewife Brook Community Pediatrics,"",Alewife Brook Community Pediatrics,42.4016180634499,-71.1370519548655,29 Massachusetts Ave,"",Arlington,MA,02474,US,7816434507,"","",EST,"",Active
The Clip Joint,"",The Clip Joint,42.403247833252,-71.1394500732422,108 Massachusetts Ave,"",Arlington,MA,02474,US,7816468485,"","",EST,"",Active
Cyrus Dallin Art Museum,"",Cyrus Dallin Art Museum,42.4155837386512,-71.1525249481201,611 Massachusetts Ave,"",Arlington,MA,02474,US,7816410747,"","",EST,"",Active
Herb's Locksmith,"",Herb's Locksmith,42.4095674604177,-71.1393177509308,98 Broadway,"",Arlington,MA,02474,US,7816434200,"","",EST,"",Active
Walgreens,"",Walgreens,42.4103406071663,-71.1477499455214,324 Massachusetts Ave,"",Arlington,MA,02474,US,7816434112,"","",EST,"",Active
Wood & Strings Music Center,"",Wood & Strings Music Center,42.4151001,-71.1517334,493 Massachusetts Ave,"",Arlington,MA,02474,US,7816412131,"","",EST,"",Active
Greek Orthodox Church of Arlington,"",Greek Orthodox Church of Arlington,42.4234391748905,-71.176228299737,4 Appleton St,"",Arlington,MA,02476,US,7816460705,"","",EST,"",Active
Leader Bank,"",Leader Bank,42.4043110013008,-71.1403195559978,141 Massachusetts Ave,"",Arlington,MA,02474,US,7816413900,"","",EST,"",Active
Arlington Shell Auto Care,"",Arlington Shell Auto Care,42.4182739,-71.166163,934 Massachusetts Ave,"",Arlington,MA,02476,US,7816437722,"","",EST,"",Active
US Post Office,"",US Post Office,42.416874,-71.155663,10 Court St,"",Arlington,MA,02476,US,7816485376,"","",EST,"",Active
Channing Johnson Photography,"",Channing Johnson Photography,42.3463503,-71.1626756,"Arlington, MA 02474","",Arlington,MA,02474,US,6176406091,"","",EST,"",Active
Rental Group,"",Rental Group,42.4040380865335,-71.1399742215872,127 Massachusetts Ave,"",Arlington,MA,02474,US,7813162880,"","",EST,"",Active
ArtBeat,"",ArtBeat,42.4060117,-71.1428152,212A Massachusetts Ave,"",Arlington,MA,02474,US,7816462200,"","",EST,"",Active
Cambridge Savings Bank,"",Cambridge Savings Bank,42.4053535,-71.1419754,188 Massachusetts Ave,"",Arlington,MA,02474,US,6178648700,"","",EST,"",Active
Restoration Services,"",Restoration Services,42.4157789,-71.1526464,9 Mystic St,"",Arlington,MA,02474,US,7816483322,"","",EST,"",Active
Zenergy Massage & Reiki,"",Zenergy Massage & Reiki,42.4121893197298,-71.1488382518291,366 Massachusetts Ave,"",Arlington,MA,02474,US,9786660488,"","",EST,"",Active
Pear Tree Hair Design,"",Pear Tree Hair Design,42.4118178337812,-71.1440686136484,199 Broadway,"",Arlington,MA,02474,US,7816460033,"","",EST,"",Active
Silver and Salt,"",Silver and Salt,42.415901,-71.152954,25 Mystic St,"",Arlington,MA,02474,US,6175131634,"","",EST,"",Active
Taylor Rental Arlington,"",Taylor Rental Arlington,42.425926,-71.179389,78 Bow St,"",Arlington,MA,02474,US,7816469747,"","",EST,"",Active
Mystic Street Gulf,"",Mystic Street Gulf,42.4197617,-71.1526184,140 Mystic Street,"",Arlington,MA,02474,US,7816489709,"","",EST,"",Active
Mirak Hyundai,"",Mirak Hyundai,42.423244,-71.174018,1165 Massachusetts Ave,"",Arlington,MA,02476,US,7813471424,"","",EST,"",Active
Archambault Chiropractic & Wellness,"",Archambault Chiropractic & Wellness,42.416512,-71.149719,9 Chestnut St.,"",Arlington,MA,02474,US,7812576039,"","",EST,"",Active
The Whittemore-Robbins House,"",The Whittemore-Robbins House,42.414532,-71.15522,670R Massachusetts Ave,"",Arlington,MA,02476,US,7813163260,"","",EST,"",Active
"Emily Taylor, CMT","","Emily Taylor, CMT",42.4136986091279,-71.1486366034617,393 Massachusetts Ave,"",Arlington,MA,02474,US,7819641983,"","",EST,"",Active
Remodeling Boston,"",Remodeling Boston,42.406158,-71.16272,256 Pleasant St,"",Arlington,MA,02476,US,7813252009,"","",EST,"",Active
Rainbow Cleaners,"",Rainbow Cleaners,42.4067078,-71.1437073,234 Massachusetts Ave,"",Arlington,MA,02474,US,7816486620,"","",EST,"",Active
Arlington Health and Fitness,"",Arlington Health and Fitness,42.4018021,-71.1371155,29 Massachusetts Ave,"",Arlington,MA,02474,US,7816485433,"","",EST,"",Active
Take the Leap Coaching with Kim Childs,"",Take the Leap Coaching with Kim Childs,42.4201486,-71.1694133,1025 Massachusetts Ave,"",Arlington,MA,02476,US,6176403813,"","",EST,"",Active
Custom Car Care,"",Custom Car Care,42.417052,-71.158067,10 Mill St,"",Arlington,MA,02476,US,7816412532,"","",EST,"",Active
O'neil Shannon L Electrolysis & Skin Care,"",O'neil Shannon L Electrolysis & Skin Care,42.4130707,-71.1555481,94 Pleasant St,"",Arlington,MA,02476,US,7816433223,"","",EST,"",Active
Lexington Eye Associates,"",Lexington Eye Associates,42.4085991829634,-71.1458140611649,281 Massachusetts Ave,"",Arlington,MA,02474,US,7816481620,"","",EST,"",Active
Mirak Chevrolet,"",Mirak Chevrolet,42.42239,-71.1729202,1125 Massachusetts Ave,"",Arlington,MA,02476,US,7815199902,"","",EST,"",Active
B & R Glass Company,"",B & R Glass Company,42.4033775,-71.1389771,109 Massachusetts Ave,"",Arlington,MA,02474,US,7816431102,"","",EST,"",Active
Rodrigo Serrano F.-Re/Max Leading Edge,"",Rodrigo Serrano F.-Re/Max Leading Edge,42.410133,-71.147193,319 Massachusetts Ave,"",Arlington,MA,02474,US,7819297379,"","",EST,"",Active
Valvoline Instant Oil Change,"",Valvoline Instant Oil Change,42.41822,-71.151359,82 Mystic St,"",Arlington,MA,02474,US,7816485157,"","",EST,"",Active
Watertown Savings Bank,"",Watertown Savings Bank,42.4189606,-71.1676865,980 Massachusetts Ave,"",Arlington,MA,02476,US,7816460515,"","",EST,"",Active
Anton's Cleaners,"",Anton's Cleaners,42.4150429,-71.1525574,600 Massachusetts Ave,"",Arlington,MA,02476,US,7816481577,"","",EST,"",Active
Ace Cleaners,"",Ace Cleaners,42.4188232,-71.1672058,968 Mass Ave,"",Arlington,MA,02476,US,7816431757,"","",EST,"",Active
Arlington Pediatric Assoc,"",Arlington Pediatric Assoc,42.416409,-71.154297,5 Water Street,"",Arlington,MA,02476,US,7816415800,"","",EST,"",Active
New England Acupuncture and Oriental Herbal Services,"",New England Acupuncture and Oriental Herbal Services,42.4175911,-71.1579132,22 Mill St,"",Arlington,MA,02476,US,7816413633,"","",EST,"",Active
Fresh Coat Painters,"",Fresh Coat Painters,42.434498,-71.167908,22 Country Club Dr,"",Arlington,MA,02474,US,7816460177,"","",EST,"",Active
New England Orienteering Club,"",New England Orienteering Club,42.4204254150391,-71.1566619873047,"Arlington, MA 02474","",Arlington,MA,02474,US,7816481155,"","",EST,"",Active
Jolly Bike,"",Jolly Bike,42.4204254150391,-71.1566619873047,"Arlington, MA 02474","",Arlington,MA,02474,US,,"","",EST,"",Active
All That Travel,"",All That Travel,42.4282842890483,-71.1529590372955,"Arlington, MA 02474","",Arlington,MA,02474,US,7812858747,"","",EST,"",Active
EZ Nails,"",EZ Nails,42.418162599206,-71.1654015630484,925 Massachusetts Ave,"",Arlington,MA,02476,US,7817771219,"","",EST,"",Active
Big Picture Framing,"",Big Picture Framing,42.4242927879095,-71.1832925677299,1332 Massachusetts Ave,"",Arlington,MA,02476,US,7816481489,"","",EST,"",Active
Sanford Camera Repair,"",Sanford Camera Repair,42.4206007272005,-71.1704092472792,1056 Massachusetts Ave,"",Arlington,MA,02476,US,7816482505,"","",EST,"",Active
Sunny Cleaners,"",Sunny Cleaners,42.4111593,-71.1486218,344A Massachusetts Ave,"",Arlington,MA,02474,US,7816482439,"","",EST,"",Active
Beaujolais Catering,"",Beaujolais Catering,42.4120384454727,-71.1446117609739,207 Broadway,"",Arlington,MA,02474,US,7816465408,"","",EST,"",Active
Dudley Services,"",Dudley Services,42.4209487438202,-71.1664174497128,43 Dudley St,"",Arlington,MA,02476,US,7816434328,"","",EST,"",Active
Peak Performance Physical Therapy and Sports Medicine,"",Peak Performance Physical Therapy and Sports Medicine,42.4013178,-71.1371233,26 Massachusetts Ave,"",Arlington,MA,02474,US,6178285617,"","",EST,"",Active
Ripples,"",Ripples,42.4143531918526,-71.1502303183079,309 Broadway,"",Arlington,MA,02474,US,7816469800,"","",EST,"",Active
Sarah's School of Martial Arts,"",Sarah's School of Martial Arts,42.4215770512819,-71.1722539365292,1100 Massachusetts Ave,"",Arlington,MA,02476,US,7816410262,"","",EST,"",Active
Paul Gerzon,"",Paul Gerzon,42.4204254150391,-71.1566619873047,"Arlington, MA 02474","",Arlington,MA,02474,US,7815071115,"","",EST,"",Active
Century 21 Adams,"",Century 21 Adams,42.4240494,-71.1834335,75 Park Ave,"",Arlington,MA,02476,US,7816486900,"","",EST,"",Active
Kim's Cleaners and Tailor,"",Kim's Cleaners and Tailor,42.4123,-71.148407,369 Massachusetts Avenue,"",Arlington,MA,02474,US,7816466633,"","",EST,"",Active
Bubbling Brook Acupuncture,"",Bubbling Brook Acupuncture,42.4052773,-71.1418762,180 Massachusetts Ave,"",Arlington,MA,02474,US,6179705721,"","",EST,"",Active
Cancer Dudes Live More,"",Cancer Dudes Live More,42.40731,-71.138863,57 Cleveland St,"",Arlington,MA,02474,US,6175041313,"","",EST,"",Active
Clay Dreams,"",Clay Dreams,42.4056816,-71.141777,183 Massachusetts Ave,"",Arlington,MA,02474,US,7816413000,"","",EST,"",Active
Greater Boston Motorsports,"",Greater Boston Motorsports,42.4212875366211,-71.1722717285156,1098 Massachusetts Ave,"",Arlington,MA,02476,US,7816481300,"","",EST,"",Active
Mystic Wine Shoppe,"",Mystic Wine Shoppe,42.4176399885449,-71.1641099653341,901 Massachusetts Ave,"",Arlington,MA,02476,US,7816462100,"","",EST,"",Active
All Star Dry Cleaning & Tailoring,"",All Star Dry Cleaning & Tailoring,42.4235786497593,-71.1756563186646,1195 Massachusetts Avenue,"",Arlington,MA,02476,US,7816430721,"","",EST,"",Active
Noune Karapetian & Allen Babroudi,"",Noune Karapetian & Allen Babroudi,42.4151306152344,-71.1767044067383,Arlington Heights,"",Arlington,MA,02476,US,6172567097,"","",EST,"",Active
China Cafe,"",China Cafe,42.4172516,-71.1637268,882 Massachusetts Ave,"",Arlington,MA,02476,US,7816466621,"","",EST,"",Active
Body & Brain Arlington,"",Body & Brain Arlington,42.4146984,-71.1508006,325 Broadway,"",Arlington,MA,02474,US,7816489642,"","",EST,"",Active
Gulf Gas Station,"",Gulf Gas Station,42.4147071838379,-71.1387176513672,85 River Street,"",Arlington,MA,02474,US,,"","",EST,"",Active
Elite Medspa & Wellness,"",Elite Medspa & Wellness,42.402228936553,-71.1377634108067,61 Massachusetts Ave,"",Arlington,MA,02474,US,7818595784,"","",EST,"",Active
Brite Whites Laundromat,"",Brite Whites Laundromat,42.4234485626221,-71.1748878657818,1177 Massachusetts Ave,"",Arlington,MA,02476,US,7816482471,"","",EST,"",Active
French in The Kitchen,"",French in The Kitchen,42.4276886,-71.1855927,191 Lowell St,"",Arlington,MA,02474,US,8574458636,"","",EST,"",Active
Brennan Plumbing & Heating,"",Brennan Plumbing & Heating,42.414299,-71.186386,114 Rhinecliff St,"",Arlington,MA,02476,US,7816482737,"","",EST,"",Active
Edith M Fox Branch Library,"",Edith M Fox Branch Library,42.4055786,-71.1416473,175 Massachusetts Ave,"",Arlington,MA,02474,US,7813163198,"","",EST,"",Active
Whole Foods Market,"",Whole Foods Market,42.416355,-71.158993,808 Massachusetts Ave,"",Arlington,MA,02476,US,7817777200,"","",EST,"",Active
Maida Pharmacy,"",Maida Pharmacy,42.4040756,-71.1398697,121 Massachusetts Ave,"",Arlington,MA,02474,US,7816437840,"","",EST,"",Active
Little Flowers Daycare,"",Little Flowers Daycare,42.4236488342285,-71.1869888305664,10 Spring Rd,"",Arlington,MA,02476,US,7816462159,"","",EST,"",Active
RCN Boston,"",RCN Boston,42.4184303,-71.1668625,956 Massachusetts Ave,"",Arlington,MA,02476,US,8007464726,"","",EST,"",Active
Magic Bites Bakery,"",Magic Bites Bakery,42.4177049,-71.1648675,916 Massachusetts Ave,"",Arlington,MA,02476,US,7813161633,"","",EST,"",Active
Arlington Swifty Printing,"",Arlington Swifty Printing,42.424328,-71.184738,1386 Massachusetts Ave,"",Arlington,MA,02476,US,7816468700,"","",EST,"",Active
Enterprise Rent-A-Car,"",Enterprise Rent-A-Car,42.420614,-71.16685,4 Dudley Place,"",Arlington,MA,02476,US,7816431558,"","",EST,"",Active
Arlington Auto Body,"",Arlington Auto Body,42.420372,-71.166931,14 Dudley Ct,"",Arlington,MA,02476,US,7816489580,"","",EST,"",Active
The Artful Heart Gallery,"",The Artful Heart Gallery,42.4143545329571,-71.1502336710691,311 Broadway,"",Arlington,MA,02474,US,7817771533,"","",EST,"",Active
Janette Tailoring & Alteration Wedding Gown Specialsts,"",Janette Tailoring & Alteration Wedding Gown Specialsts,42.416637763381,-71.158936098218,805 Massachusetts Avenue,"",Arlington,MA,02476,US,7816468410,"","",EST,"",Active
Gentle Dental,"",Gentle Dental,42.416378,-71.1564331,725 Massachusetts Ave,"",Arlington,MA,02474,US,7816430010,"","",EST,"",Active
Merle Norman Cosmetics Skin Care & Nails,"",Merle Norman Cosmetics Skin Care & Nails,42.4162582308054,-71.1562136560678,715 Massachusetts Ave,"",Arlington,MA,02476,US,7816435454,"","",EST,"",Active
Laura's Sewing School,"",Laura's Sewing School,42.4165579676628,-71.158360093832,785 Massachusetts Ave,"",Arlington,MA,02476,US,7816462463,"","",EST,"",Active
Autowater Irrigation Co.,"",Autowater Irrigation Co.,42.425150424242,-71.1739403754473,33 Ryder St,"",Arlington,MA,02476,US,7818631000,"","",EST,"",Active
Brigham Square,"",Brigham Square,42.418633,-71.15889,30 Mill St,"",Arlington,MA,02476,US,7816434938,"","",EST,"",Active
Maragret Ryding,"",Maragret Ryding,42.4132025241852,-71.1494041979313,393 Massachusetts Ave,"",Arlington,MA,02474,US,7816412195,"","",EST,"",Active
Fashion Cake Boutique,"",Fashion Cake Boutique,42.4057278,-71.1423086,2 Lake St,"",Arlington,MA,02474,US,7816482253,"","",EST,"",Active
TD Bank,"",TD Bank,42.4171143,-71.1632919,880 Massachusetts Ave,"",Arlington,MA,02476,US,7816410050,"","",EST,"",Active
"Leader Mortgage Company, Inc","","Leader Mortgage Company, Inc",42.4052773,-71.1418762,180 Massachusetts Ave,"",Arlington,MA,02474,US,7816487900,"","",EST,"",Active
Advanced Mobile Audio,"",Advanced Mobile Audio,42.413467,-71.145302,84 Warren Street,"",Arlington,MA,02474,US,7816468000,"","",EST,"",Active
New Asia,"",New Asia,42.4055904150009,-71.1421273648739,194 Massachusetts Ave,"",Arlington,MA,02474,US,7816436364,"","",EST,"",Active
Superior Auto Center,"",Superior Auto Center,42.4018346518278,-71.1374670267105,36 Massachusetts Ave,"",Arlington,MA,02474,US,7816463660,"","",EST,"",Active
CVS Pharmacy,"",CVS Pharmacy,42.4173393,-71.1604385,833 Massachusetts Ave,"",Arlington,MA,02476,US,7816434272,"","",EST,"",Active
7 Star Grocery,"",7 Star Grocery,42.4149177968502,-71.1511188000441,6 Medford St,"",Arlington,MA,02474,US,7816431255,"","",EST,"",Active
Charlene's Barber Shop,"",Charlene's Barber Shop,42.4166222,-71.1601028,824 Massachusetts Ave,"",Arlington,MA,02476,US,7816464434,"","",EST,"",Active
Heights Barber Shop,"",Heights Barber Shop,42.4243276566267,-71.1825978755951,1317 Massachusetts Ave,"",Arlington,MA,02476,US,7816489686,"","",EST,"",Active
"John W Archibald, OD","","John W Archibald, OD",42.4149097502232,-71.1519851535559,476 Massachusetts Ave,"",Arlington,MA,02474,US,7816482342,"","",EST,"",Active
Personal Care Chiropractic & Massage,"",Personal Care Chiropractic & Massage,42.4030922,-71.1391248,104 Massachusetts Ave,"",Arlington,MA,02474,US,7816414482,"","",EST,"",Active
Lynne's Nails,"",Lynne's Nails,42.4187171459198,-71.1667862534523,964 Massachusetts Avenue,"",Arlington,MA,02476,US,7816464669,"","",EST,"",Active
Blush Salon,"",Blush Salon,42.4241829,-71.1777573,1241 Massachusetts Ave,"",Arlington,MA,02476,US,7814833500,"","",EST,"",Active
Suburban Residential Real Estate,"",Suburban Residential Real Estate,42.421013,-71.169117,1337 Mass Ave,"",Arlington,MA,02476,US,7813255765,"","",EST,"",Active
Arlington Fuel,"",Arlington Fuel,42.4116096,-71.1432877,177 Broadway,"",Arlington,MA,02474,US,7816434630,"","",EST,"",Active
Gold's Gym,"",Gold's Gym,42.4250984,-71.1811829,30 Park Ave,"",Arlington,MA,02476,US,7816464653,"","",EST,"",Active
Lahey Hospital,"",Lahey Hospital,42.4080236,-71.1359641,37 Broadway,"",Arlington,MA,01913,US,7816410100,"","",EST,"",Active
Firefly Moon,"",Firefly Moon,42.4243082106113,-71.1821311712265,1305 Massachusetts Ave,"",Arlington,MA,02476,US,7819990965,"","",EST,"",Active
"Fuse Landscape Design, Inc.","","Fuse Landscape Design, Inc.",42.4204254150391,-71.1566619873047,"Arlington, MA 02474","",Arlington,MA,02474,US,6178957412,"","",EST,"",Active
Arlex Auto Driving School,"",Arlex Auto Driving School,42.4111404,-71.1484375,352 Massachusetts Avenue,"",Arlington,MA,02474,US,7816436657,"","",EST,"",Active
Minute Man Repair,"",Minute Man Repair,42.403419,-71.1390294,111 Massachusetts Ave,"",Arlington,MA,02474,US,7816466190,"","",EST,"",Active
Bella Decor,"",Bella Decor,42.424511,-71.1835709,1343 Massacusetts Ave,"",Arlington,MA,02476,US,7817772419,"","",EST,"",Active
Laurie Randazzo Williamson - Homes North of Boston,"",Laurie Randazzo Williamson - Homes North of Boston,42.4577039,-71.139011,RE/MAX Leading Edge,"",Arlington,MA,02474,US,6175124581,"","",EST,"",Active
Ventmaster,"",Ventmaster,42.402985,-71.136261,35 Henderson St,"",Arlington,MA,02474,US,7816437501,"","",EST,"",Active
Not Your Average Joes,"",Not Your Average Joes,42.4158061351695,-71.1538576042649,645 Mass Ave,"",Arlington,MA,02476,US,7816431666,"","",EST,"",Active
Arlington Family Practice,"",Arlington Family Practice,42.41756,-71.15792,22 Mill St,"",Arlington,MA,02474,US,7816464345,"","",EST,"",Active
The Arlington Center,"",The Arlington Center,42.41246,-71.14856,369 Massachusetts Ave,"",Arlington,MA,02474,US,7813160282,"","",EST,"",Active
Bowes Real Estate Real Living,"",Bowes Real Estate Real Living,42.4195709,-71.1688385,1010 Massachusetts Ave,"",Arlington,MA,02476,US,7816483500,"","",EST,"",Active
Continentale Hair Salon,"",Continentale Hair Salon,42.4060593,-71.1428757,214 Massachusetts Ave,"",Arlington,MA,02474,US,7816480500,"","",EST,"",Active
Dunkin' Donuts,"",Dunkin' Donuts,42.4099807739258,-71.1394424438477,101 Broadway,"",Arlington,MA,02474,US,7816437742,"","",EST,"",Active
Utopia Cleaners,"",Utopia Cleaners,42.4243889,-71.1846542,1370 Massachusetts Ave,"",Arlington,MA,02476,US,7816484783,"","",EST,"",Active
Mill Brook Animal Clinic,"",Mill Brook Animal Clinic,42.4235916,-71.1750946,1183 Massachusetts Ave,"",Arlington,MA,02476,US,7816431500,"","",EST,"",Active
Main Event Tuxedo,"",Main Event Tuxedo,42.4150658,-71.1516571,487 Massachusetts Ave,"",Arlington,MA,02474,US,7816486800,"","",EST,"",Active
Drumming Preparatory School,"",Drumming Preparatory School,42.410366,-71.145355,41 Foster St,"",Arlington,MA,02474,US,7817210490,"","",EST,"",Active
Varinos Dental Associates of Arlington,"",Varinos Dental Associates of Arlington,42.4177405,-71.1579432,22 Mill St,"",Arlington,MA,02476,US,7816480279,"","",EST,"",Active
Varallo Orthodontics,"",Varallo Orthodontics,42.417828,-71.1581635,22 Mill St,"",Arlington,MA,02476,US,7816489200,"","",EST,"",Active
Arlington Optique Boutique,"",Arlington Optique Boutique,42.4144516,-71.150238,313 Broadway,"",Arlington,MA,02474,US,7816463470,"","",EST,"",Active
Resourcery Bodywork,"",Resourcery Bodywork,42.41332,-71.14923,393 Massachusetts Ave,"",Arlington,MA,02474,US,7819641983,"","",EST,"",Active
Arlington 360,"",Arlington 360,42.423377,-71.162327,4105 Symmes Cir,"",Arlington,MA,02474,US,7818595807,"","",EST,"",Active
Remax Leading Edge,"",Remax Leading Edge,42.409863,-71.14695,311 Massachusetts Ave,"",Arlington,MA,02474,US,7816430430,"","",EST,"",Active
Pat Lordan Photography,"",Pat Lordan Photography,42.423183,-71.150314,45 Draper Ave,"",Arlington,MA,02474,US,7816437297,"","",EST,"",Active
"Salvage, Ltd","","Salvage, Ltd",42.4033178,-71.139421,112 Massachusetts Ave,"",Arlington,MA,02474,US,7818595690,"","",EST,"",Active
2 Rivers Contracting & Services,"",2 Rivers Contracting & Services,42.411556,-71.142326,2 River St,"",Arlington,MA,02474,US,7816463026,"","",EST,"",Active
Amy's Salon,"",Amy's Salon,42.423488,-71.174848,1179 Mass Ave,"",Arlington,MA,02476,US,7817771394,"","",EST,"",Active
Platinum Insurance Agency,"",Platinum Insurance Agency,42.4136887,-71.1503906,418 Mass Ave.,"",Arlington,MA,02474,US,7818595356,"","",EST,"",Active
Emerging Bodywork,"",Emerging Bodywork,42.4077113717794,-71.14467009902,The Healing Ctr,"",Arlington,MA,02474,US,6178636302,"","",EST,"",Active
Erik Taylor Massage Therapy,"",Erik Taylor Massage Therapy,42.4147287011147,-71.1540558189154,42 Pleasant St,"",Arlington,MA,02476,US,6177750724,"","",EST,"",Active
"Melissa Crossen, DC","","Melissa Crossen, DC",42.4147287011147,-71.1540558189154,Arlington Chiropractic,"",Arlington,MA,02476,US,7816484000,"","",EST,"",Active
Everest Healthcare,"",Everest Healthcare,42.4170195420534,-71.1581326360291,22 Mill St,"",Arlington,MA,02476,US,7817772320,"","",EST,"",Active
Doukakis-Corsetti Insurance Agency Inc,"",Doukakis-Corsetti Insurance Agency Inc,42.41756,-71.15792,22 Mill  St,"",Arlington,MA,02476,US,7816413300,"","",EST,"",Active
Drikung Meditation Center,"",Drikung Meditation Center,42.41569,-71.16061,15 Bartlett Ave,"",Arlington,MA,02476,US,8883905580,"","",EST,"",Active
Bodytune Massage,"",Bodytune Massage,42.4166374,-71.1602097,828 Massachusetts Ave,"",Arlington,MA,02476,US,7816461020,"","",EST,"",Active
Shanny Beer & Wine,"",Shanny Beer & Wine,42.4190551042557,-71.1579061299562,94 Summer St,"",Arlington,MA,02474,US,7816410113,"","",EST,"",Active
"Maureen E Norman, DO","","Maureen E Norman, DO",42.4184265,-71.1576157,50 Mill St,"",Arlington,MA,02476,US,7816487707,"","",EST,"",Active
Natural Nails and Spa,"",Natural Nails and Spa,42.4172134399414,-71.1638793945312,882B Massachusetts Ave,"",Arlington,MA,02476,US,7817772038,"","",EST,"",Active
Arlington Dental Care,"",Arlington Dental Care,42.411339,-71.147865,347 Massachusetts Ave,"",Arlington,MA,02474,US,7816437050,"","",EST,"",Active
Floral Art Designs,"",Floral Art Designs,42.423244,-71.174019,1165R Massachussetts Ave,"",Arlington,MA,02476,US,7816455900,"","",EST,"",Active
"HomeHarvest, Custom Edible Gardens","","HomeHarvest, Custom Edible Gardens",42.4141006,-71.1411285,23 Dartmouth St,"",Arlington,MA,02474,US,3399276764,"","",EST,"",Active
Cityside Locksmith,"",Cityside Locksmith,42.4146227810566,-71.1337208209015,14 Arizona Ter,"",Arlington,MA,02474,US,6178630609,"","",EST,"",Active
JC's Dog Walking,"",JC's Dog Walking,42.4162902832031,-71.1567611694336,Arlington Center,"",Arlington,MA,,US,3106867924,"","",EST,"",Active
Pleasant Street Cemetery,"",Pleasant Street Cemetery,42.415694629731206,-71.15582942962651,Near Pleasant St and Mass Ave,"",Arlington,MA,02474,US,,"","",EST,"",Active
Hanson & Tilton Collision Repair,"",Hanson & Tilton Collision Repair,42.407959,-71.1344833,10 Sunnyside Ave,"",Arlington,MA,02474,US,7816433644,"","",EST,"",Active
Arlington Dental Group,"",Arlington Dental Group,42.4175911,-71.1579132,22 Mill St,"",Arlington,MA,02476,US,7816437788,"","",EST,"",Active
A&B Marble & Tile Design,"",A&B Marble & Tile Design,42.4211082,-71.1707535,1071 Massachusetts Ave,"",Arlington,MA,02476,US,7816486400,"","",EST,"",Active
Distinctive Properties,"",Distinctive Properties,42.4063923954964,-71.1447244137526,34 Freeman St,"",Arlington,MA,02474,US,7819626615,"","",EST,"",Active
Zhen Ren Chuan Martial Arts Center,"",Zhen Ren Chuan Martial Arts Center,42.41434648633,-71.150212213397,301 Broadway,"",Arlington,MA,02474,US,7816468660,"","",EST,"",Active
Murray Muscular Therapy Associates,"",Murray Muscular Therapy Associates,42.416512,-71.149719,9 Chestnut St,"",Arlington,MA,02474,US,6176538064,"","",EST,"",Active
Keefe Funeral Homes,"",Keefe Funeral Homes,42.41648,-71.14948,5 Chestnut St,"",Arlington,MA,02474,US,7816485544,"","",EST,"",Active
My Wonderful Dog,"",My Wonderful Dog,42.4204254150391,-71.1566619873047,"Arlington, MA 02474","",Arlington,MA,02474,US,2073292925,"","",EST,"",Active
Yak Academy,"",Yak Academy,42.4137007445097,-71.1488798260689,284 Broadway,"",Arlington,MA,02474,US,7814792547,"","",EST,"",Active
"Linda Kang, LMT","","Linda Kang, LMT",42.4119606,-71.148819,366 Massachusetts Ave,"",Arlington,MA,02474,US,7812818568,"","",EST,"",Active
"Robert Grossman, DMD","","Robert Grossman, DMD",42.4115409851074,-71.1486740112305,358 Massachusetts Ave,"",Arlington,MA,02474,US,7816430910,"","",EST,"",Active
Mt Pleasant Cemetery,"",Mt Pleasant Cemetery,42.4167786,-71.1480713,70 Medford St,"",Arlington,MA,02474,US,7813163277,"","",EST,"",Active
Philips Electric,"",Philips Electric,42.4112663,-71.1484146,350 Massachusetts Ave,"",Arlington,MA,02474,US,6178885434,"","",EST,"",Active
CVS/pharmacy,"",CVS/pharmacy,42.414463,-71.1502686,319 Broadway,"",Arlington,MA,02474,US,7816487019,"","",EST,"",Active
Bryn Durham Massage Therapy,"",Bryn Durham Massage Therapy,42.42099,-71.163269,71 Grove St,"",Arlington,MA,02474,US,7817771928,"","",EST,"",Active
Mark Allen Electric,"",Mark Allen Electric,42.398758,-71.144289,East Arlington,"",Arlington,MA,02474,US,6178526056,"","",EST,"",Active
Cody Floral Designs,"",Cody Floral Designs,42.420536,-71.165642,26 Dudley St,"",Arlington,MA,02476,US,,"","",EST,"",Active
Grey-Patti Sunoco Service,"",Grey-Patti Sunoco Service,42.4185905,-71.16716,960 Massachusetts Avenue,"",Arlington,MA,02476,US,7816430449,"","",EST,"",Active
Chris Hartford Hypnosis,"",Chris Hartford Hypnosis,42.4051133529683,-71.1418170957622,180 Massachusetts Ave,"",Arlington,MA,02474,US,3397070251,"","",EST,"",Active
Lesley Ellis School,"",Lesley Ellis School,42.410366,-71.145355,41 Foster St,"",Arlington,MA,02474,US,7816415987,"","",EST,"",Active
Dramatically Incorrect Theater Group,"",Dramatically Incorrect Theater Group,42.410366,-71.145355,41 Foster St,"",Arlington,MA,02474,US,9782354580,"","",EST,"",Active
Anthony Mignanelli Plumbing & Heating,"",Anthony Mignanelli Plumbing & Heating,42.4122000485659,-71.1439425498247,13 Rawson Rd,"",Arlington,MA,02474,US,6178232270,"","",EST,"",Active
Massage Envy,"",Massage Envy,42.4244753,-71.1849667,1398 Massachusetts Ave.,"",Arlington,MA,02476,US,7816413689,"","",EST,"",Active
Fischer's Automotive,"",Fischer's Automotive,42.4118881,-71.1499786,20 Pond Lane,"",Arlington,MA,02474,US,7816411115,"","",EST,"",Active
Arlington Self Storage,"",Arlington Self Storage,42.421692,-71.169571,12 Brattle Ct,"",Arlington,MA,02476,US,7816486655,"","",EST,"",Active
Kathy's Kat Kare,"",Kathy's Kat Kare,42.4153925,-71.1564729,Arlington Center,"",Arlington,MA,,US,7816434380,"","",EST,"",Active
Housing Corporation of Arlington,"",Housing Corporation of Arlington,42.415127,-71.15683,20 Academy St,"",Arlington,MA,02476,US,7813163429,"","",EST,"",Active
Sage Chiropractic,"",Sage Chiropractic,42.4160805,-71.1574402,742 Massachusetts Ave,"",Arlington,MA,02476,US,7812574111,"","",EST,"",Active
Susan Bartolini Photography,"",Susan Bartolini Photography,42.4159900099039,-71.1542543023825,661 Massachusetts Ave,"",Arlington,MA,02476,US,,"","",EST,"",Active
First Baptist Church of Arlington,"",First Baptist Church of Arlington,42.4168625,-71.1598969,819 Massachusetts Ave,"",Arlington,MA,02476,US,7816433024,"","",EST,"",Active
Seamus McGrath - Arlington Realtor,"",Seamus McGrath - Arlington Realtor,42.4157639,-71.1533356,637 Massachusetts Ave,"",Arlington,MA,02474,US,5082830239,"","",EST,"",Active
Fitzsimmons Law Office,"",Fitzsimmons Law Office,42.4157486,-71.1532822,635 Massachusetts Ave,"",Arlington,MA,02476,US,7816412300,"","",EST,"",Active
"Bush Andrew H, MD","","Bush Andrew H, MD",42.4130707,-71.1555481,94 Pleasant St,"",Arlington,MA,02476,US,7816430008,"","",EST,"",Active
"Barbara Lawnicki, DMD, PC","","Barbara Lawnicki, DMD, PC",42.4208944290876,-71.170969158411,1068 Masssachusetts Ave,"",Arlington,MA,02476,US,7816466788,"","",EST,"",Active
"Donna Katcher, MD","","Donna Katcher, MD",42.4175911,-71.1579132,22 Mill St,"",Arlington,MA,02476,US,7816462848,"","",EST,"",Active
A Place To Grow,"",A Place To Grow,42.412216,-71.156982,118 Pleasant St,"",Arlington,MA,02476,US,7816467689,"","",EST,"",Active
Denise's Homemade Ice Cream,"",Denise's Homemade Ice Cream,42.414943,-71.1513914,451 Massachusetts Ave,"",Arlington,MA,02474,US,7814833990,"","",EST,"",Active
Lopisi Joseph A Law Office of,"",Lopisi Joseph A Law Office of,42.416615,-71.161568,846 Massachusetts Avenue,"",Arlington,MA,02476,US,7816436200,"","",EST,"",Active
InterioReview,"",InterioReview,42.4149513,-71.1505737,13 A Medford St,"",Arlington,MA,02474,US,8668999606,"","",EST,"",Active
Arlington Tire,"",Arlington Tire,42.4214668273926,-71.1725006103516,1100 Massachusetts Ave,"",Arlington,MA,02476,US,7816467500,"","",EST,"",Active
Arlington Town of,"",Arlington Town of,42.4204254150391,-71.1566619873047,Town Hall Anx,"",Arlington,MA,02474,US,7813163090,"","",EST,"",Active
Ballet Academy,"",Ballet Academy,42.4204254150391,-71.1566619873047,"Arlington, MA 02474","",Arlington,MA,02474,US,7816414477,"","",EST,"",Active
Summer Street Autocare,"",Summer Street Autocare,42.4207898229361,-71.1661069840193,36 Dudley St,"",Arlington,MA,02474,US,7816489751,"","",EST,"",Active
Eli's Service Station,"",Eli's Service Station,42.41064453125,-71.140869140625,125 Broadway,"",Arlington,MA,02474,US,7816489833,"","",EST,"",Active
"Thomas M Leonard, DMD","","Thomas M Leonard, DMD",42.4119606,-71.148819,366 Massachusetts Ave,"",Arlington,MA,02474,US,6174924121,"","",EST,"",Active
Kim Myung Acupuncture & Herbal Clinic,"",Kim Myung Acupuncture & Herbal Clinic,42.411339,-71.147865,347 Massachusetts Ave,"",Arlington,MA,02474,US,7816433679,"","",EST,"",Active
Kidcasso Art Studio,"",Kidcasso Art Studio,42.4055367,-71.1425095,2 Lake St,"",Arlington,MA,02174,US,,"","",EST,"",Active
Gormley Chiropractic,"",Gormley Chiropractic,42.423957,-71.17902,1250 Massachusetts Ave,"",Arlington,MA,02476,US,7816439433,"","",EST,"",Active
Ed Burns Arena,"",Ed Burns Arena,42.4256592,-71.1722336,422 Summer St,"",Arlington,MA,02474,US,7813163887,"","",EST,"",Active
Mouradian Plumbing & Heating,"",Mouradian Plumbing & Heating,42.419063,-71.166813,32 Prentiss Rd Suite 204,"",Arlington,MA,02476,US,7817903890,"","",EST,"",Active
Vincent's Barber Shop,"",Vincent's Barber Shop,42.4052169173956,-71.141469553113,167 Massachusetts Ave,"",Arlington,MA,02474,US,7816461840,"","",EST,"",Active
Massachusetts Ambulance,"",Massachusetts Ambulance,42.4218673706055,-71.1652069091797,12 Brattle Pl,"",Arlington,MA,02474,US,7816410536,"","",EST,"",Active
Maum Meditation Center - Boston,"",Maum Meditation Center - Boston,42.4019584,-71.137519,48 Massachusetts Ave,"",Arlington,MA,02474,US,7816432651,"","",EST,"",Active
Casa Esme Bilingual Nursery School,"",Casa Esme Bilingual Nursery School,42.414603,-71.143837,29 Beacon St,"",Arlington,MA,02474,US,7816430055,"","",EST,"",Active
Brackett Elementary School,"",Brackett Elementary School,42.4127464,-71.1764908,66 Eastern Ave,"",Arlington,MA,02476,US,7813163702,"","",EST,"",Active
Buzzys Bazaar,"",Buzzys Bazaar,42.4015724658966,-71.1369989812374,25B Massachusetts Ave,"",Arlington,MA,02474,US,7816430862,"","",EST,"",Active
Embassy Cleaners,"",Embassy Cleaners,42.4242196977139,-71.1821573227644,1308 Massachusetts Avenue,"",Arlington,MA,02476,US,7816481657,"","",EST,"",Active
tenBroek Hypnotherapy,"",tenBroek Hypnotherapy,42.406395,-71.143631,226 Massachusetts Ave,"",Arlington,MA,02474,US,6176456856,"","",EST,"",Active
An Apple A Day Acupuncture,"",An Apple A Day Acupuncture,42.4077113717794,-71.14467009902,259 Massachusetts Ave,"",Arlington,MA,02474,US,7816480911,"","",EST,"",Active
Barefoot Coach,"",Barefoot Coach,42.4077226,-71.1447556,259 Mass Ave,"",Arlington,MA,02474,US,,"","",EST,"",Active
Sherwin-Williams Paint Store,"",Sherwin-Williams Paint Store,42.424731,-71.186154,1406 Massachusetts Ave,"",Arlington,MA,02476,US,7816460782,"","",EST,"",Active
"Harris Gerald S, MD","","Harris Gerald S, MD",42.4080074,-71.1356351,37 Broadway,"",Arlington,MA,02474,US,7816410100,"","",EST,"",Active
"Ruane & Company, CPA","","Ruane & Company, CPA",42.4175911,-71.1579132,22 Mill St,"",Arlington,MA,02474,US,7816430090,"","",EST,"",Active
Stop & Shop Supermarket,"",Stop & Shop Supermarket,42.4180708200002,-71.1643052101135,905 Massachusetts Ave,"",Arlington,MA,02474,US,7816463625,"","",EST,"",Active
New England Soap Company,"",New England Soap Company,42.4204254150391,-71.1566619873047,"Arlington, MA 02474","",Arlington,MA,02474,US,8669727627,"","",EST,"",Active
CaNine To Fve,"",CaNine To Fve,42.4204254150391,-71.1566619873047,"Arlington, MA 02474","",Arlington,MA,02474,US,6175846595,"","",EST,"",Active
Byrne Tree Service,"",Byrne Tree Service,42.4204254150391,-71.1566619873047,"Arlington, MA 02474","",Arlington,MA,02474,US,7816439000,"","",EST,"",Active
Hair Say II,"",Hair Say II,42.4242391437292,-71.1826340854168,1322 Massachusetts Ave,"",Arlington,MA,02476,US,7816432887,"","",EST,"",Active
Riley Building Associates  Renovation & Construction,"",Riley Building Associates  Renovation & Construction,42.435478,-71.166466,2 Apache Trl,"",Arlington,MA,02474,US,7812542173,"","",EST,"",Active
US Post Office,"",US Post Office,42.4068307,-71.1438735,240 Massachusetts Ave,"",Arlington,MA,02474,US,7816434482,"","",EST,"",Active
New Covenant School,"",New Covenant School,42.426376,-71.181885,9 Westminster Ave,"",Arlington,MA,02476,US,7816435511,"","",EST,"",Active
One2One Styling,"",One2One Styling,42.4234733730555,-71.1749683320522,1179 Massachusetts Ave,"",Arlington,MA,02476,US,7813162595,"","",EST,"",Active
Artlounge Arlington,"",Artlounge Arlington,42.4242456,-71.1836373,1346 Massachusetts Ave,"",Arlington,MA,02476,US,7816430300,"","",EST,"",Active
Careful Carriers Moving Services,"",Careful Carriers Moving Services,42.426987,-71.183205,37 Westminster Ave,"",Arlington,MA,02474,US,7816410298,"","",EST,"",Active
Brackett After School,"",Brackett After School,42.4127464,-71.1764908,66 Eastern Avenue,"",Arlington,MA,02476,US,7816487439,"","",EST,"",Active
Craig's Landscaping,"",Craig's Landscaping,42.425854,-71.178871,70 Bow Street,"",Arlington,MA,02474,US,7816433841,"","",EST,"",Active
Winchester Country Club,"",Winchester Country Club,42.4349860846996,-71.1556752026081,468 Mystic Street,"",Arlington,MA,02474,US,7816489813,"","",EST,"",Active
Middlesex Home Inspection,"",Middlesex Home Inspection,42.4171634763479,-71.177985817194,65 Fountain Road,"",Arlington,MA,02476,US,7816460828,"","",EST,"",Active
Puopolo E & Son,"",Puopolo E & Son,42.4251709,-71.1742401,24 Beck Road,"",Arlington,MA,02476,US,7816485239,"","",EST,"",Active
Anderson Sue A Justice of the Peace,"",Anderson Sue A Justice of the Peace,42.4043606221676,-71.1393029987812,20 Windsor St,"",Arlington,MA,02474,US,7816461677,"","",EST,"",Active
A Vital Signs,"",A Vital Signs,42.40301,-71.13915,106 Massachusetts Ave,"",Arlington,MA,02474,US,7816436327,"","",EST,"",Active
Center Stage The Band,"",Center Stage The Band,42.4292153,-71.178378,104 Park Avenue Extension,"",Arlington,MA,02476,US,9787903666,"","",EST,"",Active
Citizens Bank,"",Citizens Bank,42.4214087426662,-71.1338507384062,501 High,"",Arlington,MA,02474,US,7816480885,"","",EST,"",Active
BKS Iyengar Yogamala,"",BKS Iyengar Yogamala,42.4127197,-71.1802521,35 Chester St,"",Arlington,MA,02476,US,7816483455,"","",EST,"",Active
Hermon Elizabeth,"",Hermon Elizabeth,42.4027345329523,-71.138369590044,89 Massachusetts Ave,"",Arlington,MA,02474,US,6175479081,"","",EST,"",Active
Napa Auto Parts,"",Napa Auto Parts,42.4192716926336,-71.1586906760931,108 Summer St,"",Arlington,MA,02474,US,7816464330,"","",EST,"",Active
Personal Safety,"",Personal Safety,42.4249535,-71.1797562,60 Lowell St,"",Arlington,MA,02474,US,6179962400,"","",EST,"",Active
Arlington Boys & Girls Club,"",Arlington Boys & Girls Club,42.4116287,-71.1524887,60 Pond Ln,"",Arlington,MA,02474,US,7816481617,"","",EST,"",Active
Simpson Bros Moving & Storage,"",Simpson Bros Moving & Storage,42.431091,-71.16925,14 Tower Road,"",Arlington,MA,02474,US,6176255090,"","",EST,"",Active
Pigott Electric Company,"",Pigott Electric Company,42.402317,-71.1381836,70 Massachusetts Ave,"",Arlington,MA,02474,US,7816435446,"","",EST,"",Active
"Pangburn David A, MD","","Pangburn David A, MD",42.4016180634499,-71.1370519548655,29 Massachusetts Ave,"",Arlington,MA,02474,US,7816434507,"","",EST,"",Active
Arlington Brook Community Pediatrics,"",Arlington Brook Community Pediatrics,42.4018021,-71.1371155,29 Masschusetts Ave,"",Arlington,MA,02474,US,7816434507,"","",EST,"",Active
Batiz,"",Batiz,42.423542,-71.1748734,1179 Massachusetts Ave,"",Arlington,MA,02476,US,7813160010,"","",EST,"",Active
Goulet Carmen F Chirprctr,"",Goulet Carmen F Chirprctr,42.4242740124464,-71.181146800518,1289 Massachusetts Avenue,"",Arlington,MA,02476,US,7816461277,"","",EST,"",Active
Mission Trophy,"",Mission Trophy,42.4148688465357,-71.1514493823051,455 Massachusetts Ave,"",Arlington,MA,02474,US,7816487589,"","",EST,"",Active
Mirak Automotive,"",Mirak Automotive,42.42239,-71.1729202,1125 Massachusetts Ave,"",Arlington,MA,02476,US,7816438000,"","",EST,"",Active
Knight Chiropractic,"",Knight Chiropractic,42.425648,-71.181557,90 Lowell St,"",Arlington,MA,02474,US,7816412510,"","",EST,"",Active
Bouvier Jewelers,"",Bouvier Jewelers,42.4242223799229,-71.1822257190943,1310B Massachusetts Ave,"",Arlington,MA,02476,US,7816430084,"","",EST,"",Active
Alpha Auto Body & Auto Sound,"",Alpha Auto Body & Auto Sound,42.4249365180731,-71.1825133860111,30 Park Avenue,"",Arlington,MA,02476,US,7816464611,"","",EST,"",Active
MacDonald Plumbing,"",MacDonald Plumbing,42.4257485568523,-71.1819823086262,8 Park Ave,"",Arlington,MA,02474,US,7816465800,"","",EST,"",Active
"Vosgerichian George, DMD","","Vosgerichian George, DMD",42.4245987,-71.1838837,1365 Massachusetts Ave,"",Arlington,MA,02476,US,7816467788,"","",EST,"",Active
The Legacy At Arlington Center,"",The Legacy At Arlington Center,42.4142876,-71.1511459,438 Massachusetts Ave,"",Arlington,MA,02474,US,7816430077,"","",EST,"",Active
Dr John Chaglassian,"",Dr John Chaglassian,42.4200478,-71.1689301,1021 Mass Ave,"",Arlington,MA,02476,US,7816436437,"","",EST,"",Active
Edible Arrangements,"",Edible Arrangements,42.41087,-71.148361,342 Massachusetts Ave,"",Arlington,MA,02474,US,7816438700,"","",EST,"",Active
Swift Construction,"",Swift Construction,42.418472,-71.189079,63 Dow Avenue,"",Arlington,MA,02476,US,7816414144,"","",EST,"",Active
Mar-Di Cleaners & Tailors,"",Mar-Di Cleaners & Tailors,42.4190872907639,-71.1580261588097,96 Summer St.,"",Arlington,MA,02474,US,7816430048,"","",EST,"",Active
Seven Star Painting Company,"",Seven Star Painting Company,42.4217567443848,-71.1895141601563,47 Inverness Rd,"",Arlington,MA,02476,US,7816466045,"","",EST,"",Active
"Michael F Fitzpatrick, DMD","","Michael F Fitzpatrick, DMD",42.41756,-71.15792,22 Mill St,"",Arlington,MA,02476,US,7816464822,"","",EST,"",Active
The Costume Company,"",The Costume Company,42.4150772,-71.15168,489 Massachusetts Avenue,"",Arlington,MA,02474,US,7816439422,"","",EST,"",Active
Palmer's Auto Body,"",Palmer's Auto Body,42.4322395324707,-71.1836013793945,712 Summer St,"",Arlington,MA,02474,US,7816461990,"","",EST,"",Active
EH Electric,"",EH Electric,42.4212981015444,-71.19176030159,14 Nicod St,"",Arlington,MA,02476,US,6173351122,"","",EST,"",Active
Arlington Hair Salon for Men,"",Arlington Hair Salon for Men,42.4120865,-71.1444855,205 Broadway,"",Arlington,MA,02474,US,7816466425,"","",EST,"",Active
CVS/pharmacy,"",CVS/pharmacy,42.401552349329,-71.136974170804,23 Massachusetts Ave,"",Arlington,MA,02474,US,7816480557,"","",EST,"",Active
Arlington Florist,"",Arlington Florist,42.4244156,-71.1826096,1321 Massachusetts Ave,"",Arlington,MA,02476,US,7816488812,"","",EST,"",Active
Barrington Management,"",Barrington Management,42.4124454706907,-71.148996502161,376 Massachusetts Ave,"",Arlington,MA,02474,US,7816489600,"","",EST,"",Active
City Paint,"",City Paint,42.4252597242594,-71.1890928447247,1472 Massachusetts Ave,"",Arlington,MA,02476,US,7816430200,"","",EST,"",Active
Mal's Service Center,"",Mal's Service Center,42.4253006,-71.1917419,1540 Massachusetts Ave,"",Arlington,MA,02476,US,7816487700,"","",EST,"",Active
Symmes Mini-Mart,"",Symmes Mini-Mart,42.4161682,-71.155014,681 Massachusetts Avenue,"",Arlington,MA,02476,US,7816489856,"","",EST,"",Active
Boston Party Machine,"",Boston Party Machine,42.4162902832031,-71.1567611694336,Arlington Center,"",Arlington,MA,,US,7816432560,"","",EST,"",Active
Summer Street Getty,"",Summer Street Getty,42.423168,-71.165718,251 Summer St,"",Arlington,MA,02474,US,7816489751,"","",EST,"",Active
Crescent Plumbing,"",Crescent Plumbing,42.4232158,-71.1537637,93 Crescent Hill Ave,"",Arlington,MA,02474,US,7816464500,"","",EST,"",Active
Mass Convenience,"",Mass Convenience,42.407467,-71.143974,245 Massachusetts Ave,"",Arlington,MA,02474,US,7816413560,"","",EST,"",Active
Warren Realty,"",Warren Realty,42.4024770408869,-71.1380597949028,71 Massachusetts Ave,"",Arlington,MA,02474,US,7816486700,"","",EST,"",Active
Golden Water Massage Therapy,"",Golden Water Massage Therapy,42.4133148,-71.1499557,400 Massachusetts Avenue,"",Arlington,MA,02474,US,7816481358,"","",EST,"",Active
Citizens Bank,"",Citizens Bank,42.416363,-71.155685,699 Massachusetts Ave,"",Arlington,MA,02476,US,6175516148,"","",EST,"",Active
Kristin Chalmers Photography,"",Kristin Chalmers Photography,42.4162902832031,-71.1567611694336,Arlington Center,"",Arlington,MA,,US,,"","",EST,"",Active
Passing Patsy's Notes,"",Passing Patsy's Notes,42.4162902832031,-71.1567611694336,Arlington Center,"",Arlington,MA,,US,8579280434,"","",EST,"",Active
The Found Sock Laudromat,"",The Found Sock Laudromat,42.4052963,-71.1414108,169A Mass Ave,"",Arlington,MA,02474,US,,"","",EST,"",Active
Citgo Mass Ave Service Center,"",Citgo Mass Ave Service Center,42.4220886,-71.173378,1132 Massachusetts Ave,"",Arlington,MA,02476,US,7816432173,"","",EST,"",Active
Coldwell Banker Residential Brokerage,"",Coldwell Banker Residential Brokerage,42.4157486,-71.1532822,635 Massachusetts Ave,"",Arlington,MA,02476,US,7816486500,"","",EST,"",Active
Hair Cuttery,"",Hair Cuttery,42.4247138947248,-71.186265796423,1408 Massachuesets Ave,"",Arlington,MA,02476,US,7814883400,"","",EST,"",Active
Arlington Center Auto Body,"",Arlington Center Auto Body,42.4146314710379,-71.1524994671345,4 Swan Pl,"",Arlington,MA,02476,US,7816410477,"","",EST,"",Active
