Name,Brand*,Lat*,Lng*,Address1,Address2,City,State,Zip code,Country,Phone,Store hours,Time zone,Dma Code,Status*
Tryst,American (New),42.4161949,-71.1551971,689 Massachusetts Ave,Arlington Center,Arlington,MA,02476,US,7816412227,"",EST,"",Active
Thorndike Field Dog Park,Dog Parks,42.3993440000257,-71.1447358131409,99 Margaret St,East Arlington,Arlington,MA,02474,US,,"",EST,"",Active
Madrona Tree,Burgers,42.4144554,-71.1502533,315 Broadway,Arlington Center,Arlington,MA,02474,US,7818595551,"",EST,"",Active
Zhu,Asian Fusion,42.4048527156341,-71.1414219932752,166 Massachusetts Ave,East Arlington,Arlington,MA,02474,US,7816467600,"",EST,"",Active
Andrina's Pizzeria,Pizza,42.42063626647,-71.1704803258181,1060 Massachusetts Ave,Arlington Center,Arlington,MA,02476,US,7816484800,"",EST,"",Active
Sabatino's Italian Kitchen,Italian,42.4067612,-71.1439514,242 Massachusetts Ave,East Arlington,Arlington,MA,02476,US,7816464126,"",EST,"",Active
Sono Asian,Asian Fusion,42.4277064,-71.1742079,471 Summer St,"Arlington, MA 02474",Arlington,MA,02474,US,7816488866,"",EST,"",Active
Jimmy's Steer House,Steakhouses,42.4219437,-71.172493,1111 Massachusetts Ave,Arlington Heights,Arlington,MA,02476,US,7816464450,"",EST,"",Active
Spy Pond,Parks,42.4092626230695,-71.1494886875153,Pond Ln,East Arlington,Arlington,MA,02474,US,,"",EST,"",Active
Flora Restaurant,American (New),42.40535,-71.14227,190 Massachusetts Ave,East Arlington,Arlington,MA,02474,US,7816411664,"",EST,"",Active
Scutra,Salad,42.4190222471952,-71.1577854305506,92 Summer St,Arlington Center,Arlington,MA,02474,US,7813161816,"",EST,"",Active
Sweet Chili,Thai,42.4147356,-71.1518222,470-472 Massachusetts Ave,Arlington Center,Arlington,MA,02474,US,7816462400,"",EST,"",Active
Fresh Pond Seafood,Seafood,42.4191246,-71.1566315,75 Summer St,Arlington Center,Arlington,MA,02474,US,7817771784,"",EST,"",Active
Gail Ann Coffee Shop,Coffee & Tea,42.4150276,-71.1511154,10 Medford St,Arlington Center,Arlington,MA,02474,US,7816489584,"",EST,"",Active
Kickstand Cafe,Coffee & Tea,42.4149971,-71.1524429,594 Massachusetts Ave,Arlington Center,Arlington,MA,02476,US,7815836110,"",EST,"",Active
Boyles Market,Delis,42.4087923020124,-71.1376889795065,64 Broadway,East Arlington,Arlington,MA,02474,US,7816461188,"",EST,"",Active
Ristorante Olivio,Italian,42.4060259,-71.1423496,201 Mass Ave,East Arlington,Arlington,MA,02474,US,7816482300,"",EST,"",Active
Thai E-Sarn Cuisine,Thai,42.4246254,-71.1843155,1377 Massachusetts Ave,Arlington Heights,Arlington,MA,02476,US,7816482223,"",EST,"",Active
Mr Sushi,Sushi Bars,42.4162253200321,-71.1553573608398,693 Massachusetts Ave,Arlington Center,Arlington,MA,02474,US,7816434173,"",EST,"",Active
My Brother's Place,Pizza,42.4116,-71.1432899,181 Broadway,East Arlington,Arlington,MA,02474,US,7816460110,"",EST,"",Active
MKC Associates Home Inspection,Home Inspectors,42.421505,-71.165367,20 Brattle Pl,Arlington Center,Arlington,MA,02474,US,8886524677,"",EST,"",Active
Szechuan's Dumpling,Szechuan,42.4242811803008,-71.1839634288361,1360 Massachusetts Ave,Arlington Heights,Arlington,MA,02476,US,7816488882,"",EST,"",Active
Maria's Pizzeria and Subs,Pizza,42.402675524354,-71.1384607851505,86 Massachusetts Ave,North Cambridge,Arlington,MA,02474,US,7816488011,"",EST,"",Active
Intelligent Labor & Moving,Movers,42.425357,-71.17464,18 Beck Rd,Arlington Heights,Arlington,MA,02476,US,6178640620,"",EST,"",Active
Villa House of Pizza,Pizza,42.4246282,-71.1844194,1367 Massachusetts Ave,Arlington Heights,Arlington,MA,02476,US,7816460202,"",EST,"",Active
Fusion Taste,Japanese,42.4144325,-71.150177,303 Broadway,Arlington Center,Arlington,MA,02474,US,7816412388,"",EST,"",Active
Not Your Average Joe's,American (New),42.4160232543945,-71.1537551879883,645 Mass Ave,Arlington Center,Arlington,MA,02476,US,7816431666,"",EST,"",Active
Retro Burger & Ice Cream,Burgers,42.4166538,-71.1586243,795 Massachusetts Ave,Arlington Center,Arlington,MA,02476,US,7817772139,"",EST,"",Active
Classic Cafe,Diners,42.4243216216564,-71.1824423074722,1313 Massachusetts Ave,Arlington Heights,Arlington,MA,02476,US,7816467871,"",EST,"",Active
Thailand Cafe,Thai,42.4049808830023,-71.1411684751511,161 Massachusetts Ave,East Arlington,Arlington,MA,02474,US,7816430296,"",EST,"",Active
Penzey's Spices,Specialty Food,42.4243622,-71.1812592,1293 Massachusetts Ave,Arlington Heights,Arlington,MA,02474,US,7816467707,"",EST,"",Active
Menotomy Grill and Tavern,American (Traditional),42.4016419,-71.136934,25 Massachusetts Ave,North Cambridge,Arlington,MA,02474,US,7816481775,"",EST,"",Active
Capri Pizza & Subs,Pizza,42.4241201402142,-71.1829052328491,1323 Massachusetts Ave,Arlington Heights,Arlington,MA,02476,US,7816465440,"",EST,"",Active
Punjabi Tadka,Indian,42.4144349992275,-71.1511731147766,444 Massachusetts Ave,Arlington Center,Arlington,MA,02474,US,7816489500,"",EST,"",Active
Robbins Library,Libraries,42.415712427152,-71.155162994214,700 Massachusetts Ave,Arlington Center,Arlington,MA,02474,US,7813163200,"",EST,"",Active
Olympic Pizza House,Pizza,42.4053307,-71.1413422,173 Massachusetts Ave,East Arlington,Arlington,MA,02474,US,7816436131,"",EST,"",Active
Shanghai Village,Shanghainese,42.4142532,-71.1511002,434 Massachusetts Ave,Arlington Center,Arlington,MA,02474,US,7816466897,"",EST,"",Active
Arlington Restaurant and Diner,Diners,42.4040059000254,-71.1401009559631,134 Massachusetts Ave,East Arlington,Arlington,MA,02474,US,7816469266,"",EST,"",Active
Comella's,Italian,42.405753934945,-71.142528718998,202 Massachusetts Ave,East Arlington,Arlington,MA,02474,US,7816463000,"",EST,"",Active
Bruce's Tire and Service Co,Tires,42.4207898229361,-71.1661069840193,36 Dudley St,Arlington Center,Arlington,MA,02476,US,7816487622,"",EST,"",Active
Common Ground,American (Traditional),42.414463,-71.1502686,319 Broadway,Arlington Center,Arlington,MA,02474,US,7817280060,"",EST,"",Active
Infinity Beauty Salon,Hair Salons,42.4049464,-71.1412511,164 Massachusetts Ave,East Arlington,Arlington,MA,02474,US,7816467269,"",EST,"",Active
Quebrada Baking Co,Bakeries,42.4060088396072,-71.1426617950201,208 Massachusetts Ave,East Arlington,Arlington,MA,02474,US,7816480700,"",EST,"",Active
Derby Farm Flowers & Gardens,Florists,42.4061,-71.142993,218 Massachusetts Ave,East Arlington,Arlington,MA,02474,US,7816430842,"",EST,"",Active
Bagels by Us,Bagels,42.4166412,-71.1583633,789 Massachusetts Ave,Arlington Center,Arlington,MA,02476,US,7816462662,"",EST,"",Active
Mini Moves & More,Movers,42.4197349362102,-71.1522402052796,"Arlington, MA 02474",,Arlington,MA,02474,US,7816469000,"",EST,"",Active
The Book Rack,Bookstores,42.4149513,-71.1505737,13 Medford St,Arlington Center,Arlington,MA,02474,US,7816462665,"",EST,"",Active
Balich 5 & 10,Department Stores,42.4242277443409,-71.1823618412018,1314 Massachusetts Ave,Arlington Heights,Arlington,MA,02476,US,7816483707,"",EST,"",Active
T C Jewelers,Jewelry,42.4145389348269,-71.1513065546751,456 Massachusetts Ave,Arlington Center,Arlington,MA,02474,US,7816462221,"",EST,"",Active
Pro-Tech Consultants Home Inspections,Home Inspectors,42.4151306152344,-71.1767044067383,Arlington Heights,"Arlington, MA 02476",Arlington,MA,02476,US,7816436300,"",EST,"",Active
Starbucks,Coffee & Tea,42.414740473312,-71.150985344363,327 Broadway,Arlington Center,Arlington,MA,02474,US,7816412893,"",EST,"",Active
J&L Hair Studio,Hair Salons,42.4243529,-71.1823883,1371 Mass Ave,Arlington Heights,Arlington,MA,02476,US,7816434643,"",EST,"",Active
Sun's Kitchen,Chinese,42.42568,-71.18144,90 Lowell St,Arlington Heights,Arlington,MA,02474,US,7816483388,"",EST,"",Active
Biba's Baked Goods,Bakeries,42.4151306152344,-71.1767044067383,Arlington Heights,"Arlington, MA 02476",Arlington,MA,02476,US,7818596222,"",EST,"",Active
Arlington Chiropractic,Chiropractors,42.41465,-71.1538086,42 Pleasant St,Arlington Center,Arlington,MA,02476,US,7816484000,"",EST,"",Active
Camilla's Bridal,Bridal,42.4161453,-71.1548233,673 Massachusetts Ave,Arlington Center,Arlington,MA,02474,US,7816411300,"",EST,"",Active
Lakota Bakery,Bakeries,42.424618847415,-71.184157981676,1373 Massachusetts Ave,Arlington Heights,Arlington,MA,02476,US,7816460121,"",EST,"",Active
The Arlington Cafe,Pizza,42.4277318,-71.1742372,475 Summer St,"Arlington, MA 02474",Arlington,MA,02474,US,7814833020,"",EST,"",Active
Amaze Escape,Challenge Courses,42.416675567627,-71.1562423706055,7 Central St,Ste 130,Arlington,MA,02476,US,6178009945,"",EST,"",Active
Capitol Theatre,Cinema,42.405777,-71.142808,204 Massachusetts Ave,East Arlington,Arlington,MA,02474,US,7816484340,"",EST,"",Active
VCA City Cats Hospital,Veterinarians,42.4160121381283,-71.1543468385935,665 Massachusetts Ave,Arlington Center,Arlington,MA,02476,US,7816413673,"",EST,"",Active
Elton's Roast Beef and Pizza,Pizza,42.414930537343,-71.1520320922136,478 Massachusetts Ave,Arlington Center,Arlington,MA,02474,US,7816468900,"",EST,"",Active
Play Time,Art Supplies,42.4140701,-71.148613,283 Broadway,"Arlington, MA 02474",Arlington,MA,02474,US,7816483230,"",EST,"",Active
Great Wok,Chinese,42.4234975129366,-71.17506287992,1181 Massachusetts Ave,Arlington Heights,Arlington,MA,02476,US,7816488998,"",EST,"",Active
Sugo Cucina Italiana,Italian,42.40484,-71.14131,162 Massachusetts Ave,East Arlington,Arlington,MA,02474,US,7816480005,"",EST,"",Active
Sports Etc,Sporting Goods,42.4243055284023,-71.1820533871651,1303 Massachusetts Ave,Arlington Heights,Arlington,MA,02476,US,7816461600,"",EST,"",Active
Precision Tire and Alignment,Tires,42.4240112,-71.1767502,1211 Massachusetts Avenue,Arlington Heights,Arlington,MA,02476,US,7816438473,"",EST,"",Active
Arlington Animal Clinic,Veterinarians,42.4117889,-71.1436462,191 Broadway,East Arlington,Arlington,MA,02474,US,7816460758,"",EST,"",Active
Stella's Hair Salon,Hair Salons,42.4032951146364,-71.1391950398684,110 Massachusetts Ave,North Cambridge,Arlington,MA,02474,US,7816481900,"",EST,"",Active
"Big Foot Moving & Storage, Inc.",Movers,42.4252338372854,-71.1810153936401,30 Park Ave,Arlington Heights,Arlington,MA,02476,US,7814883090,"",EST,"",Active
Anthony's Barber Styling,Barbers,42.404589,-71.141177,160A Massachusetts Ave,East Arlington,Arlington,MA,02474,US,7816460990,"",EST,"",Active
Bagelville,Breakfast & Brunch,42.424243,-71.1853299,1398 Massachusetts Ave,Arlington Heights,Arlington,MA,02476,US,7814833900,"",EST,"",Active
Sringar Hair Design,Hair Salons,42.4123,-71.148407,369 Massachusetts Ave,East Arlington,Arlington,MA,02474,US,7816488200,"",EST,"",Active
Chilly Cow of Boston,Ice Cream & Frozen Yogurt,42.414913259711,-71.151336017184,451 Massachusetts Ave,Arlington Center,Arlington,MA,02474,US,7816484360,"",EST,"",Active
Ma Cherie Studios,Session Photography,42.4148798,-71.1745579,Arlington Heights,"Arlington, MA 02476",Arlington,MA,02476,US,8572440117,"",EST,"",Active
Helen Nails,Nail Salons,42.411068,-71.1482925,346 Massachusetts Ave,East Arlington,Arlington,MA,02474,US,7816488883,"",EST,"",Active
The Little Fox Shop,"Used, Vintage & Consignment",42.40558,-71.1416,Fox Library,175 Mass Ave,Arlington,MA,02474,US,7813163157,"",EST,"",Active
Willow Baby Studios,Photographers,42.403259,-71.139069,Magnolia St,North Cambridge,Arlington,MA,02474,US,6174800387,"",EST,"",Active
A1 Automotive Repair,Auto Repair,42.420437,-71.166122,39 Dudley St,Arlington Center,Arlington,MA,02476,US,7813162886,"",EST,"",Active
Robin's Nest Pet Salon,Pet Groomers,42.4188090115786,-71.167459487915,4 Mt Vernon St,Arlington Center,Arlington,MA,02476,US,3393687277,"",EST,"",Active
M.Y. Salon and Day Spa,Hair Salons,42.4243851,-71.1819534,1309 Massachusetts Ave,Arlington Heights,Arlington,MA,02476,US,7816481199,"",EST,"",Active
Starbucks,Coffee & Tea,42.425293,-71.18853,1465 Massachusetts Ave,Arlington Heights,Arlington,MA,02476,US,7816469366,"",EST,"",Active
Gibbons Electric,Electricians,42.411732,-71.143456,189 Broadway,East Arlington,Arlington,MA,02474,US,7816487771,"",EST,"",Active
Dudley Street Auto Body,Auto Repair,42.420437,-71.166122,34 Dudley St,Arlington Center,Arlington,MA,02476,US,7816480805,"",EST,"",Active
Tony's All-Sport Barbershop,Barbers,42.4058401,-71.1421039,191 Massachusetts Ave,East Arlington,Arlington,MA,02474,US,7813160333,"",EST,"",Active
Arlington Global,Auto Repair,42.410561,-71.148201,334 Massachusetts Ave,East Arlington,Arlington,MA,02474,US,7816489878,"",EST,"",Active
Cambridge Typewriter Company,Local Services,42.4031060189009,-71.1389710754156,102 Massachusetts Ave,North Cambridge,Arlington,MA,02474,US,7816437010,"",EST,"",Active
May's Nail Design,Nail Salons,42.4051807075739,-71.1414232850075,163 Massachusetts Ave,East Arlington,Arlington,MA,02474,US,7816437502,"",EST,"",Active
"Lisa Desrosiers, M.Ac, L.Ac.",Acupuncture,42.4052773,-71.1418762,Davis Square Acupuncture,"180 Massachusetts Ave, Ste 301",Arlington,MA,02474,US,6175488167,"",EST,"",Active
Greg Digiorgio - Re/Max Leading Edge,Real Estate Agents,42.4101333618164,-71.1471939086914,319 Massachusetts Ave,East Arlington,Arlington,MA,02474,US,6172334530,"",EST,"",Active
Fabric Corner,Fabric Stores,42.4166717529297,-71.1581726074219,783 Massachusetts Ave,Arlington Center,Arlington,MA,02476,US,7816434040,"",EST,"",Active
Menotomy Beer & Wine,"Beer, Wine & Spirits",42.4091415,-71.1386642,80 Broadway,East Arlington,Arlington,MA,02474,US,7816460889,"",EST,"",Active
Tiki-In,Chinese,42.4051988124847,-71.1414460837841,165 Massachusetts Ave,East Arlington,Arlington,MA,02474,US,7816464988,"",EST,"",Active
Something Sweet Without Wheat,Bakeries,42.4052456,-71.1415783,169 Massachusetts Ave,East Arlington,Arlington,MA,02474,US,7817771451,"",EST,"",Active
Dorian Color Lab,Photography Stores & Services,42.418156,-71.158012,24 Mill Street,Arlington Center,Arlington,MA,02476,US,7816488040,"",EST,"",Active
Wild Child,Children's Clothing,42.41338887031,-71.149445420524,5 Medford St,Arlington Center,Arlington,MA,02474,US,7814833566,"",EST,"",Active
The Bike Stop,Bike Rentals,42.4211388,-71.1665268,43R Dudley St,Arlington Center,Arlington,MA,02476,US,7816467867,"",EST,"",Active
Maxima Center,Toy Stores,42.4060135,-71.1428146,212 Massachusetts Ave,East Arlington,Arlington,MA,02474,US,7816466835,"",EST,"",Active
PRIME Your Trusted Butcher,Meat Shops,42.4243547,-71.1851859,1398 Massachussets Ave,Arlington Heights,Arlington,MA,02476,US,7816431100,"",EST,"",Active
Road Warrior Moving & Storage,Movers,42.424705,-71.180053,50 Lowell St,Arlington Heights,Arlington,MA,02476,US,7816462300,"",EST,"",Active
Boyle's Body Works,Body Shops,42.408299446106,-71.1336596310139,29 Sunnyside Ave,East Arlington,Arlington,MA,02474,US,7816413441,"",EST,"",Active
Jimmy's Pizzeria,Pizza,42.4252396,-71.1907883,1510 Massachusetts Avenue,Arlington Heights,Arlington,MA,02476,US,7816469100,"",EST,"",Active
Family Practice Group,Family Practice,42.4166035,-71.1544883,11 Water St,Ste 1-A,Arlington,MA,02476,US,7816489700,"",EST,"",Active
Allure Hair Studio,Hair Salons,42.4151994865896,-71.1519752854483,477 Mass Ave,Arlington Center,Arlington,MA,02474,US,7816462935,"",EST,"",Active
PDDC Arlington MA Doggie Day Camp,Pet Training,42.423824,-71.174606,5 Forest St,Arlington Heights,Arlington,MA,02476,US,7816417900,"",EST,"",Active
Alterations By Violette,Sewing & Alterations,42.4221879243851,-71.1735085397959,10 Fessenden Rd,Arlington Heights,Arlington,MA,02476,US,3399701355,"",EST,"",Active
DrumConnection,Musical Instruments & Teachers,42.4054302,-71.1418093,177 Massachusetts Ave,East Arlington,Arlington,MA,02474,US,7813168068,"",EST,"",Active
R W Shattuck & Company,Hardware Stores,42.418156,-71.158012,24 Mill St,Arlington Center,Arlington,MA,02476,US,7816430114,"",EST,"",Active
Mami Hair Salon,Hair Salons,42.4057121,-71.1419601,179 Massachusetts Ave,East Arlington,Arlington,MA,02474,US,7816481880,"",EST,"",Active
13Forest Gallery,Art Galleries,42.4051977,-71.1415416,167A Massachusetts Ave,East Arlington,Arlington,MA,02474,US,7816413333,"",EST,"",Active
East Coast Chip Keys,Keys & Locksmiths,42.4032631,-71.138855,107 Massachusetts Ave,North Cambridge,Arlington,MA,02474,US,7812141145,"",EST,"",Active
Arlington House of Pizza,Pizza,42.4167053,-71.1588049,797 Massachusetts Ave,Arlington Center,Arlington,MA,02474,US,7816465016,"",EST,"",Active
Frank Formica Plumbing Service,Plumbing,42.4163599720829,-71.1563873291016,6 Grove St Pl,Arlington Center,Arlington,MA,02476,US,6175380422,"",EST,"",Active
Henry Bear's Park,Toy Stores,42.4163398742676,-71.1552200317383,685 Massachusetts Ave,Arlington Center,Arlington,MA,02476,US,7816469400,"",EST,"",Active
"Roy E Baker, OD",Optometrists,42.4158398061991,-71.1583533883095,11 Jason St,Arlington Center,Arlington,MA,02474,US,7816483420,"",EST,"",Active
Arlington Shoe Repair,Shoe Repair,42.4166337400675,-71.1589092761278,803 Massachusetts Ave,Arlington Center,Arlington,MA,02476,US,7817771576,"",EST,"",Active
The Computer Cafe,Computers,42.4140334,-71.1508185,430 Massachusetts Ave,Arlington Center,Arlington,MA,02474,US,7812189838,"",EST,"",Active
Metrosexual Movers,Movers,42.403656,-71.13797,21 Lee Ter. #2,East Arlington,Arlington,MA,02474,US,7813168344,"",EST,"",Active
A & A Delicatessen,Delis,42.4204229,-71.1702163,1042 Massachusetts Ave,Arlington Center,Arlington,MA,02476,US,7816438175,"",EST,"",Active
Lucky Dragon,Chinese,42.415020391345,-71.150967925787,14 Medford St,Arlington Center,Arlington,MA,02474,US,7816488858,"",EST,"",Active
Lovett Plumbing & Heating,Plumbing,42.4205866456032,-71.1955864727497,177 Sylvia St,"Arlington, MA 02476",Arlington,MA,02476,US,7813168100,"",EST,"",Active
Something Savory Catering,Caterers,42.4245,-71.18316,1337 Massachusetts Ave,Ste 235,Arlington,MA,02476,US,7816480333,"",EST,"",Active
Salon 221,Hair Stylists,42.4137887,-71.1453855,88 Warren St,East Arlington,Arlington,MA,02474,US,7816458361,"",EST,"",Active
Ink Jam Tattoo,Tattoo,42.4258156,-71.1818161,12 Park Ave,Arlington Heights,Arlington,MA,02474,US,7813162393,"",EST,"",Active
J & D Cleaners,Dry Cleaning & Laundry,42.40419,-71.140625,144 Massachusetts Ave,East Arlington,Arlington,MA,02474,US,7816431356,"",EST,"",Active
Arlington Acupuncture Wellness,Acupuncture,42.4032326,-71.1388092,99 Mass Ave,North Cambridge,Arlington,MA,02474,US,7818880101,"",EST,"",Active
Water House Wellness,Massage,42.4160805,-71.1574402,742 Massachusetts Ave,Arlington Center,Arlington,MA,02476,US,7816434400,"",EST,"",Active
Jennifer Edmunds Massage,Massage,42.4130707,-71.1555481,94 Pleasant St,Arlington Center,Arlington,MA,02476,US,6172942733,"",EST,"",Active
Fantasy Nails,Nail Salons,42.405522,-71.1421985,198 Massachusetts Ave,East Arlington,Arlington,MA,02474,US,7816465493,"",EST,"",Active
Rg Pro Laser,Laser Hair Removal,42.4155083,-71.1528931,7 Mystic St,Ste 202,Arlington,MA,02474,US,7816484400,"",EST,"",Active
Park West Salon,Hair Salons,42.425648,-71.181557,90 Lowell St,Arlington Heights,Arlington,MA,02474,US,7816469378,"",EST,"",Active
Giles Wine & Spirits,"Beer, Wine & Spirits",42.4043083,-71.140007,137 Massachusetts Ave,East Arlington,Arlington,MA,02474,US,7816463500,"",EST,"",Active
Christo's Fruit Market,Fruits & Veggies,42.405631123899,-71.142337540009,200 Massachusetts Ave,East Arlington,Arlington,MA,02474,US,7816410695,"",EST,"",Active
Sedona Sun Day Spa,Day Spas,42.4241829,-71.1777573,1241 Massachusetts Ave,Arlington Heights,Arlington,MA,02476,US,7816431909,"",EST,"",Active
Jacqui's Design Group Salon,Hair Salons,42.413544,-71.149055,280 Broadway,"Arlington, MA 02474",Arlington,MA,02474,US,7816460722,"",EST,"",Active
Mosaic Oasis Studio & Supply,Art Supplies,42.4237003,-71.1754542,1189B Massachusetts Ave,Arlington Heights,Arlington,MA,02474,US,7813161667,"",EST,"",Active
Benezra Boxes,Movers,42.4204254150391,-71.1566619873047,"Arlington, MA 02474",,Arlington,MA,02474,US,7816468734,"",EST,"",Active
Tone With Rindone,Trainers,42.405076,-71.141737,180 Massachusetts Ave,East Arlington,Arlington,MA,02476,US,7813677373,"",EST,"",Active
Petalena,Florists,42.4159431,-71.1521301,25 Mystic St,Arlington Center,Arlington,MA,02474,US,9788840868,"",EST,"",Active
Pravaha Energy Healing and Insight,Naturopathic/Holistic,42.4117387086153,-71.1484312266111,361 Massachusetts Ave,East Arlington,Arlington,MA,02474,US,8578918659,"",EST,"",Active
Bayles Removal Unlimited,Junk Removal & Hauling,42.4232158,-71.1537637,"Arlington, MA 02474",,Arlington,MA,02474,US,9787616699,"",EST,"",Active
Dunkin' Donuts,Coffee & Tea,42.423958,-71.178436,1234 Massachusetts Ave,Arlington Heights,Arlington,MA,02476,US,7816489681,"",EST,"",Active
Arlington Farmers Market,Farmers Market,42.4154701,-71.1532135,Pleasant St & Massachusetts Ave,Arlington Center,Arlington,MA,02474,US,,"",EST,"",Active
Fitness Together,Trainers,42.4079628288746,-71.1357517540455,37 Broadway,East Arlington,Arlington,MA,02474,US,7813168500,"",EST,"",Active
Devin Dobbins Photography,Session Photography,42.4151306152344,-71.1767044067383,Arlington Heights,"Arlington, MA 02476",Arlington,MA,02476,US,3392937480,"",EST,"",Active
Sprint Dealer - Premier Store,Mobile Phones,42.414874881506,-71.1514614522457,457 Massachusetts Ave,Arlington Center,Arlington,MA,02474,US,7816529606,"",EST,"",Active
Artwear,Women's Clothing,42.4057030677795,-71.1421072483063,189 Massachusetts Ave,East Arlington,Arlington,MA,02474,US,7816480900,"",EST,"",Active
Arlington Vision Center,Eyewear & Opticians,42.4052773,-71.1418762,180 Massachusetts Avenue,East Arlington,Arlington,MA,02474,US,7816467776,"",EST,"",Active
Kate Ruma & Associates Acupuncture,Acupuncture,42.4052773,-71.1418762,180 Massachusetts Ave,Ste 301,Arlington,MA,02474,US,6173723960,"",EST,"",Active
Grace Nail & Spa,Nail Salons,42.414978,-71.1514587,463 Massachusettes Ave,Arlington Center,Arlington,MA,02474,US,7816466000,"",EST,"",Active
Gracie J's Boutique,Women's Clothing,42.4204254150391,-71.1566619873047,"Arlington, MA 02474",,Arlington,MA,02474,US,,"",EST,"",Active
Cambridge Savings Bank,Banks & Credit Unions,42.415242760553,-71.1530918926257,626 Massachusetts Ave,Arlington Center,Arlington,MA,02476,US,6178648700,"",EST,"",Active
Helena's,Women's Clothing,42.4135551452637,-71.149284362793,397 Massachusetts Ave,Arlington Center,Arlington,MA,02474,US,7814833055,"",EST,"",Active
Synergy Acupuncture,Acupuncture,42.4119606,-71.148819,366 Massachusetts Ave,Suite 204,Arlington,MA,02474,US,6178263422,"",EST,"",Active
Trader Joe's,Grocery,42.425495966219,-71.188530759375,1427 Massachusetts Ave,Arlington Heights,Arlington,MA,02476,US,7816469138,"",EST,"",Active
Mass BJJ - Arlington,Martial Arts,42.4014091,-71.1371155,26 Massachusetts Ave,North Cambridge,Arlington,MA,02474,US,7816480405,"",EST,"",Active
Arlington Medical Aesthetics,Medical Spas,42.4172915518284,-71.1578652262688,22 Mill St,Ste 101,Arlington,MA,02476,US,7816485334,"",EST,"",Active
Arlington Appliance,Appliances & Repair,42.4204254150391,-71.1566619873047,"Arlington, MA 02474",,Arlington,MA,02474,US,7816461815,"",EST,"",Active
Doughty & Sons,Plumbing,42.4204254150391,-71.1566619873047,"Arlington, MA 02474",,Arlington,MA,02474,US,7816463296,"",EST,"",Active
Black Crow Yoga,Yoga,42.4118426442146,-71.144128292799,201 Broadway,East Arlington,Arlington,MA,02474,US,3393687315,"",EST,"",Active
Verve Fit,Trainers,42.4244995,-71.1831589,1337 Massachusetts Ave,Ste 113,Arlington,MA,02476,US,6172401772,"",EST,"",Active
Terra Nostra Hand Crafted Jewelry,Jewelry,42.4110687211012,-71.1481475830078,348 Massachusetts Ave,East Arlington,Arlington,MA,02474,US,7816480119,"",EST,"",Active
Horizons Salon & Day Spa,Day Spas,42.4241943,-71.1832733,1340 Massachusetts Ave,Arlington Heights,Arlington,MA,02474,US,7816466730,"",EST,"",Active
Regent Theatre,Music Venues,42.4148661643267,-71.1510148644447,7 Medford St,Arlington Center,Arlington,MA,02474,US,7816464849,"",EST,"",Active
Spray Pool,Parks,42.4115562,-71.1379471,Thompson School,60 North Union St,Arlington,MA,02474,US,,"",EST,"",Active
Ken's Appliance Service and Dryer Venting,Appliances & Repair,42.4162902832031,-71.1567611694336,Arlington Center,"Arlington, MA",Arlington,MA,,US,5088163093,"",EST,"",Active
Dunkin' Donuts,Coffee & Tea,42.4121361,-71.1485443,369 Mass Ave,East Arlington,Arlington,MA,02474,US,7816481681,"",EST,"",Active
Homewood Suites By Hilton Hotel/Boston-Cambridge-Arlington,Hotels,42.4011686525746,-71.1360232674591,1 Massachusetts Ave,North Cambridge,Arlington,MA,02474,US,7816437258,"",EST,"",Active
McClennen Park,Parks,42.4322886619243,-71.1820264377554,664 Summer St,"Arlington, MA 02474",Arlington,MA,02474,US,,"",EST,"",Active
Arlington Motor Mart,Auto Repair,42.4118881,-71.1499786,20 Pond Ln,East Arlington,Arlington,MA,02474,US,7816431000,"",EST,"",Active
Arlington Centered,Gift Shops,42.4211755729321,-71.1567306518555,487 Massachusetts Ave,"Arlington, MA 02474",Arlington,MA,02474,US,7816436700,"",EST,"",Active
Luv and Other Gifts,Gift Shops,42.4058009,-71.1418935,189 Massachusetts Ave,East Arlington,Arlington,MA,02474,US,6178355793,"",EST,"",Active
John Does Hair,Hair Stylists,42.4056219309568,-71.1425484716892,4 Lake St,East Arlington,Arlington,MA,02474,US,7815349288,"",EST,"",Active
J R Burke Salon,Hair Salons,42.4160385,-71.1541138,659 Massachusetts Ave,Arlington Center,Arlington,MA,02476,US,7816413800,"",EST,"",Active
Unleashed by Petco,Pet Stores,42.424454,-71.185799,1406 Massachusetts Avenue,Arlington Heights,Arlington,MA,02476,US,7814833031,"",EST,"",Active
Arlington Bait & Tackle,Fishing,42.4025917,-71.1385117,84 Massachusetts Ave,North Cambridge,Arlington,MA,02474,US,7816465598,"",EST,"",Active
Capitol Creamery,Ice Cream & Frozen Yogurt,42.4058244377375,-71.1424304544926,204 Massachusetts Ave,East Arlington,Arlington,MA,02474,US,7816484340,"",EST,"",Active
Ranch Roofing,Roofing,42.4155031,-71.1520997,1191 Mass Ave,Arlington Center,Arlington,MA,02474,US,8007713938,"",EST,"",Active
Ronald A Riesz,Eyewear & Opticians,42.4145047366619,-71.1512616276741,452 Massachusetts Ave,Arlington Center,Arlington,MA,02474,US,7816437325,"",EST,"",Active
Meineke Car Care Center,Auto Repair,42.40121,-71.137142,22 Massachusetts Avenue,North Cambridge,Arlington,MA,02474,US,7816488670,"",EST,"",Active
ChiroCare Associates,Chiropractors,42.413433,-71.150246,406 Massachusetts Ave,Arlington Center,Arlington,MA,02474,US,7814883388,"",EST,"",Active
Arlington Package Express,Local Services,42.4112663,-71.1484146,350 Massachusetts Ave,East Arlington,Arlington,MA,02474,US,7816480602,"",EST,"",Active
The Grecian Jeweler,Jewelry,42.4160999804735,-71.1520589143038,27 Mystic St,Arlington Center,Arlington,MA,02474,US,7816486782,"",EST,"",Active
Arlington Reservoir Beach,Parks,42.4282443515377,-71.1865356937051,Lowell Street,Arlington Heights,Arlington,MA,,US,,"",EST,"",Active
"Upholstery on Broadway, Inc.",Furniture Reupholstery,42.4120865,-71.1444855,205 A Broadway,East Arlington,Arlington,MA,02474,US,7816466708,"",EST,"",Active
Star Nails,Nail Salons,42.4242364615202,-71.1825656890869,1320 Massachusetts Ave,Arlington Heights,Arlington,MA,02476,US,7816480478,"",EST,"",Active
Go Play!,Pet Services,42.4203734099865,-71.1699646711349,1046 Massachusetts Ave,Arlington Center,Arlington,MA,02476,US,7813256088,"",EST,"",Active
Isbister Acupuncture,Acupuncture,42.41307,-71.155546,94 Pleasant St,Arlington Center,Arlington,MA,02476,US,5186691233,"",EST,"",Active
Dave's Fresh Pasta,Sandwiches,42.3986446720656,-71.1241095133413,81 Holland St,Davis Square,Somerville,MA,02144,US,6176230867,"",EST,"",Active
Nitya Rao Photography,Event Photography,42.417491,-71.146308,107 Medford St,Unit 1,Arlington,MA,02474,US,9786063511,"",EST,"",Active
Fitness First,Gyms,42.4152298,-71.1515121,471 Massachusetts Ave,Arlington Center,Arlington,MA,02474,US,7816434300,"",EST,"",Active
Wanamaker Hardware True Value,Hardware Stores,42.42403,-71.181496,1298 Massachusetts Ave,Arlington Heights,Arlington,MA,02476,US,7816431900,"",EST,"",Active
Subway,Sandwiches,42.4160255491734,-71.1544393748045,669 Massachusetts Ave,Arlington Center,Arlington,MA,02476,US,,"",EST,"",Active
Arlington Orthodontics,Orthodontists,42.416355,-71.158996,800 Massachusetts Ave,Ste 1,Arlington,MA,02476,US,7817772559,"",EST,"",Active
Massagecure,Massage,42.4204254150391,-71.1566619873047,366 Mass Ave,"Arlington, MA 02474",Arlington,MA,02474,US,6175107382,"",EST,"",Active
Dunkin' Donuts,Coffee & Tea,42.4194185435772,-71.1527978628874,21 Summer St,"Arlington, MA 02474",Arlington,MA,02474,US,7816489527,"",EST,"",Active
Sharona Jacobs Photography,Session Photography,42.4204254150391,-71.1566619873047,"Arlington, MA 02474",,Arlington,MA,02474,US,6178522366,"",EST,"",Active
The Bar-B-Que Barn,Appliances,42.42062,-71.1674881,9 Dudley St Pl,Arlington Center,Arlington,MA,02476,US,7816468473,"",EST,"",Active
T L Nails & Spa,Nail Salons,42.4143677,-71.1512451,448 Massachusetts Ave.,Arlington Center,Arlington,MA,02474,US,7816466089,"",EST,"",Active
Guru The Caterer,Indian,42.40574,-71.13081,1295 Broadway,Teele Square,Somerville,MA,02144,US,6177180078,"",EST,"",Active
Digumm's Ice Cream and Sandwiches,Ice Cream & Frozen Yogurt,42.4241939,-71.1828934,1328 Massachusetts Ave,Arlington Heights,Arlington,MA,02476,US,7816489892,"",EST,"",Active
Quad Cycles,Bikes,42.4205284,-71.1697769,1043 Massachusetts Ave,Arlington Center,Arlington,MA,02476,US,7816485222,"",EST,"",Active
Wish Salon & Spa,Hair Salons,42.4166374,-71.1583252,783 Massachusetts Ave,Arlington Center,Arlington,MA,02476,US,7816413759,"",EST,"",Active
Domino's Pizza,Pizza,42.4160268902779,-71.1544809490442,671 Massachusetts Ave,Arlington Center,Arlington,MA,02476,US,7816432300,"",EST,"",Active
Lalicata Landscape Products,Landscaping,42.424881,-71.1735382,33 Ryder St,Arlington Heights,Arlington,MA,02476,US,7816468580,"",EST,"",Active
Mass Ave BP,Gas & Service Stations,42.409409,-71.14637,295 Massachusetts Ave,East Arlington,Arlington,MA,02474,US,7816481939,"",EST,"",Active
Arlington Bakery,Bakeries,42.4056896567345,-71.1420884728432,187 Massachusetts Ave,East Arlington,Arlington,MA,02474,US,7816467444,"",EST,"",Active
"Esbah Fariba, DMD",General Dentistry,42.4175911,-71.1579132,Arlington Dental Group,"22 Mill St, Ste 202",Arlington,MA,02476,US,7816437788,"",EST,"",Active
North Bridge Vein Care,Medical Centers,42.4172915518284,-71.1578652262688,22 Mill St,Ste 304,Arlington,MA,02476,US,7814883110,"",EST,"",Active
"Patricia MacHalinski, DMD, PC",Endodontists,42.423282623291,-71.1755065917969,1188 Massachusetts Ave,Arlington Heights,Arlington,MA,02476,US,7816413661,"",EST,"",Active
Together in Motion,Playgrounds,42.4077187,-71.1340637,1 Broadway,East Arlington,Arlington,MA,02474,US,7816431377,"",EST,"",Active
Park Ave Citgo Service,Auto Repair,42.425564,-71.182426,19 Park Avenue,Arlington Heights,Arlington,MA,02474,US,7816489875,"",EST,"",Active
Pierre's & Sophia's Tailoring,Sewing & Alterations,42.4049091339111,-71.1412442475557,160 Massachusetts Ave,East Arlington,Arlington,MA,02474,US,7816431375,"",EST,"",Active
Alewife Brook Community Pediatrics,Doctors,42.4016180634499,-71.1370519548655,29 Massachusetts Ave,North Cambridge,Arlington,MA,02474,US,7816434507,"",EST,"",Active
Tenoch Mexican,Mexican,42.4181698259742,-71.1089605093002,24 Riverside Ave,"Medford, MA 02155",Medford,MA,02155,US,7813952221,"",EST,"",Active
My Other Kitchen,Greek,42.3927345275879,-71.1819610595703,762 Pleasant St,"Belmont, MA 02478",Belmont,MA,02478,US,6179321444,"",EST,"",Active
The Clip Joint,Pet Groomers,42.403247833252,-71.1394500732422,108 Massachusetts Ave,North Cambridge,Arlington,MA,02474,US,7816468485,"",EST,"",Active
Cyrus Dallin Art Museum,Museums,42.4155837386512,-71.1525249481201,611 Massachusetts Ave,Arlington Center,Arlington,MA,02474,US,7816410747,"",EST,"",Active
Herb's Locksmith,Keys & Locksmiths,42.4095674604177,-71.1393177509308,98 Broadway,East Arlington,Arlington,MA,02474,US,7816434200,"",EST,"",Active
Walgreens,Drugstores,42.4103406071663,-71.1477499455214,324 Massachusetts Ave,East Arlington,Arlington,MA,02474,US,7816434112,"",EST,"",Active
Wood & Strings Music Center,Musical Instruments & Teachers,42.4151001,-71.1517334,493 Massachusetts Ave,Arlington Center,Arlington,MA,02474,US,7816412131,"",EST,"",Active
Greek Orthodox Church of Arlington,Greek,42.4234391748905,-71.176228299737,4 Appleton St,Arlington Heights,Arlington,MA,02476,US,7816460705,"",EST,"",Active
Leader Bank,Banks & Credit Unions,42.4043110013008,-71.1403195559978,141 Massachusetts Ave,East Arlington,Arlington,MA,02474,US,7816413900,"",EST,"",Active
Arlington Shell Auto Care,Gas & Service Stations,42.4182739,-71.166163,934 Massachusetts Ave,Arlington Center,Arlington,MA,02476,US,7816437722,"",EST,"",Active
US Post Office,Post Offices,42.416874,-71.155663,10 Court St,Arlington Center,Arlington,MA,02476,US,7816485376,"",EST,"",Active
Magnificent Muffin & Bagel Shoppe,Bakeries,42.4213584512472,-71.133464500308,491 High St,"Medford, MA 02155",Medford,MA,02155,US,7814833511,"",EST,"",Active
Channing Johnson Photography,Event Photography,42.3463503,-71.1626756,"Arlington, MA 02474",,Arlington,MA,02474,US,6176406091,"",EST,"",Active
MA-France,Ethnic Food,42.4253838,-71.1931458,46 Massachusetts Ave,"Lexington, MA 02420",Lexington,MA,02420,US,7818621047,"",EST,"",Active
Simple Fare Delicatessen,Salad,42.4210701137781,-71.1318638920784,460 High St,"Medford, MA 02155",Medford,MA,02155,US,7813913335,"",EST,"",Active
Rental Group,Real Estate Services,42.4040380865335,-71.1399742215872,127 Massachusetts Ave,East Arlington,Arlington,MA,02474,US,7813162880,"",EST,"",Active
Istanbul'lu,Turkish,42.402682363998,-71.126685316117,237 Holland St,Teele Square,Somerville,MA,02144,US,6174407387,"",EST,"",Active
ArtBeat,Art Supplies,42.4060117,-71.1428152,212A Massachusetts Ave,East Arlington,Arlington,MA,02474,US,7816462200,"",EST,"",Active
Bistro 5,Italian,42.4213865,-71.1324138,5 Playstead Rd,"Medford, MA 02155",Medford,MA,02155,US,7813957464,"",EST,"",Active
Gen Sushi,Sushi Bars,42.3914554,-71.1602448,61 Concord Ave,"Belmont, MA 02478",Belmont,MA,02478,US,6174841708,"",EST,"",Active
3 Little Figs,Cafes,42.3918114,-71.1119003,278 Highland Ave,"Somerville, MA 02143",Somerville,MA,02143,US,6176233447,"",EST,"",Active
Cambridge Savings Bank,Banks & Credit Unions,42.4053535,-71.1419754,188 Massachusetts Ave,East Arlington,Arlington,MA,02474,US,6178648700,"",EST,"",Active
Restoration Services,Antiques,42.4157789,-71.1526464,9 Mystic St,Arlington Center,Arlington,MA,02474,US,7816483322,"",EST,"",Active
Zenergy Massage & Reiki,Reiki,42.4121893197298,-71.1488382518291,366 Massachusetts Ave,Ste 304,Arlington,MA,02474,US,9786660488,"",EST,"",Active
Bob's Italian Foods,Italian,42.4074516296387,-71.1085739135742,324 Main St,"Medford, MA 02155",Medford,MA,02155,US,7813950400,"",EST,"",Active
Amsterdam Falafelshop,Vegetarian,42.3954798281193,-71.1220215260983,248 Elm St,Davis Square,Somerville,MA,02144,US,6177643334,"",EST,"",Active
True Bistro,Vegan,42.4034030735493,-71.1274013668299,1153 Broadway,Teele Square,Somerville,MA,02144,US,6176279000,"",EST,"",Active
Lanes & Games,Bowling,42.3992805,-71.1486969,195 Concord Tpke,North Cambridge,Cambridge,MA,02140,US,6178765533,"",EST,"",Active
Pear Tree Hair Design,Hair Salons,42.4118178337812,-71.1440686136484,199 Broadway,East Arlington,Arlington,MA,02474,US,7816460033,"",EST,"",Active
Silver and Salt,Event Photography,42.415901,-71.152954,25 Mystic St,Arlington Center,Arlington,MA,02474,US,6175131634,"",EST,"",Active
Taylor Rental Arlington,Building Supplies,42.425926,-71.179389,78 Bow St,Arlington Heights,Arlington,MA,02474,US,7816469747,"",EST,"",Active
Mystic Street Gulf,Gas & Service Stations,42.4197617,-71.1526184,140 Mystic Street,"Arlington, MA 02474",Arlington,MA,02474,US,7816489709,"",EST,"",Active
Mirak Hyundai,Car Dealers,42.423244,-71.174018,1165 Massachusetts Ave,Arlington Heights,Arlington,MA,02476,US,7813471424,"",EST,"",Active
Archambault Chiropractic & Wellness,Chiropractors,42.416512,-71.149719,9 Chestnut St.,Arlington Center,Arlington,MA,02474,US,7812576039,"",EST,"",Active
The Whittemore-Robbins House,Venues & Event Spaces,42.414532,-71.15522,670R Massachusetts Ave,Arlington Center,Arlington,MA,02476,US,7813163260,"",EST,"",Active
"Emily Taylor, CMT",Massage,42.4136986091279,-71.1486366034617,393 Massachusetts Ave,"Arlington, MA 02474",Arlington,MA,02474,US,7819641983,"",EST,"",Active
Heirloom Coffee,Coffee & Tea,42.4202553927898,-71.1412636935711,9 Jerome St,"Medford, MA 02155",Medford,MA,02155,US,7813912255,"",EST,"",Active
Greek Corner Restaurant,Greek,42.3963585,-71.1295624,2366 Massachusetts Ave,North Cambridge,Cambridge,MA,02140,US,6176615655,"",EST,"",Active
Rainbow Cleaners,Dry Cleaning & Laundry,42.4067078,-71.1437073,234 Massachusetts Ave,East Arlington,Arlington,MA,02474,US,7816486620,"",EST,"",Active
Ball Square Café,Breakfast & Brunch,42.399891741015,-71.112466164631,708 Broadway,"Somerville, MA 02144",Somerville,MA,02144,US,6176232233,"",EST,"",Active
Café Rustica,Coffee & Tea,42.3857393860817,-71.1156512796879,356 Beacon St,"Somerville, MA 02143",Somerville,MA,02143,US,6174918300,"",EST,"",Active
Arlington Health and Fitness,Gyms,42.4018021,-71.1371155,29 Massachusetts Ave,North Cambridge,Arlington,MA,02474,US,7816485433,"",EST,"",Active
Take the Leap Coaching with Kim Childs,Life Coach,42.4201486,-71.1694133,1025 Massachusetts Ave,Arlington Center,Arlington,MA,02476,US,6176403813,"",EST,"",Active
Custom Car Care,Body Shops,42.417052,-71.158067,10 Mill St,2nd Fl,Arlington,MA,02476,US,7816412532,"",EST,"",Active
O'neil Shannon L Electrolysis & Skin Care,Hair Removal,42.4130707,-71.1555481,94 Pleasant St,Arlington Center,Arlington,MA,02476,US,7816433223,"",EST,"",Active
Lexington Eye Associates,Ophthalmologists,42.4085991829634,-71.1458140611649,281 Massachusetts Ave,East Arlington,Arlington,MA,02474,US,7816481620,"",EST,"",Active
Remodeling Boston,Contractors,42.406158,-71.16272,256 Pleasant St,East Arlington,Arlington,MA,02476,US,7813252009,"",EST,"",Active
Giulia,Italian,42.3824883,-71.119957,1682 Massachusetts Ave,Porter Square,Cambridge,MA,02138,US,6174412800,"",EST,"",Active
Mirak Chevrolet,Auto Repair,42.42239,-71.1729202,1125 Massachusetts Ave,Arlington Heights,Arlington,MA,02476,US,7815199902,"",EST,"",Active
B & R Glass Company,Windows Installation,42.4033775,-71.1389771,109 Massachusetts Ave,North Cambridge,Arlington,MA,02474,US,7816431102,"",EST,"",Active
Rodrigo Serrano F.-Re/Max Leading Edge,Real Estate Agents,42.410133,-71.147193,319 Massachusetts Ave,East Arlington,Arlington,MA,02474,US,7819297379,"",EST,"",Active
Valvoline Instant Oil Change,Oil Change Stations,42.41822,-71.151359,82 Mystic St,"Arlington, MA 02474",Arlington,MA,02474,US,7816485157,"",EST,"",Active
Watertown Savings Bank,Banks & Credit Unions,42.4189606,-71.1676865,980 Massachusetts Ave,Arlington Center,Arlington,MA,02476,US,7816460515,"",EST,"",Active
Anton's Cleaners,Dry Cleaning & Laundry,42.4150429,-71.1525574,600 Massachusetts Ave,Arlington Center,Arlington,MA,02476,US,7816481577,"",EST,"",Active
Ace Cleaners,Dry Cleaning & Laundry,42.4188232,-71.1672058,968 Mass Ave,Arlington Center,Arlington,MA,02476,US,7816431757,"",EST,"",Active
Arlington Pediatric Assoc,Doctors,42.416409,-71.154297,5 Water Street,Arlington Center,Arlington,MA,02476,US,7816415800,"",EST,"",Active
New England Acupuncture and Oriental Herbal Services,Acupuncture,42.4175911,-71.1579132,22 Mill St,Arlington Center,Arlington,MA,02476,US,7816413633,"",EST,"",Active
Spoke,American (New),42.3988663296308,-71.1242484911069,89 Holland St,Davis Square,Somerville,MA,02144,US,6177189463,"",EST,"",Active
Fresh Coat Painters,Painters,42.434498,-71.167908,22 Country Club Dr,"Arlington, MA 02474",Arlington,MA,02474,US,7816460177,"",EST,"",Active
Fiorella's Express,Pizza,42.3974415406694,-71.1298887226868,2401 Massachusetts Ave,North Cambridge,Cambridge,MA,02140,US,6178689900,"",EST,"",Active
New England Orienteering Club,Hiking,42.4204254150391,-71.1566619873047,"Arlington, MA 02474",,Arlington,MA,02474,US,7816481155,"",EST,"",Active
Jolly Bike,Bikes,42.4204254150391,-71.1566619873047,"Arlington, MA 02474",,Arlington,MA,02474,US,,"",EST,"",Active
All That Travel,Travel Services,42.4282842890483,-71.1529590372955,"Arlington, MA 02474",,Arlington,MA,02474,US,7812858747,"",EST,"",Active
EZ Nails,Nail Salons,42.418162599206,-71.1654015630484,925 Massachusetts Ave,Arlington Center,Arlington,MA,02476,US,7817771219,"",EST,"",Active
Big Picture Framing,Framing,42.4242927879095,-71.1832925677299,1332 Massachusetts Ave,Arlington Heights,Arlington,MA,02476,US,7816481489,"",EST,"",Active
Sanford Camera Repair,Electronics Repair,42.4206007272005,-71.1704092472792,1056 Massachusetts Ave,Arlington Center,Arlington,MA,02476,US,7816482505,"",EST,"",Active
Sunny Cleaners,Dry Cleaning & Laundry,42.4111593,-71.1486218,344A Massachusetts Ave,East Arlington,Arlington,MA,02474,US,7816482439,"",EST,"",Active
Jackson's Kitchen,American (Traditional),42.4253731,-71.1931992,50 Massachusetts Ave,"Lexington, MA 02420",Lexington,MA,02420,US,7816528844,"",EST,"",Active
Beaujolais Catering,Caterers,42.4120384454727,-71.1446117609739,207 Broadway,East Arlington,Arlington,MA,02474,US,7816465408,"",EST,"",Active
Dudley Services,Home Inspectors,42.4209487438202,-71.1664174497128,43 Dudley St,Arlington Center,Arlington,MA,02476,US,7816434328,"",EST,"",Active
Peak Performance Physical Therapy and Sports Medicine,Physical Therapy,42.4013178,-71.1371233,26 Massachusetts Ave,North Cambridge,Arlington,MA,02474,US,6178285617,"",EST,"",Active
The Shawarma Place,Fast Food,42.3936043,-71.1205521,201 Elm St,Davis Square,Somerville,MA,02144,US,6176669000,"",EST,"",Active
Flatbread Company,Pizza,42.3957481384277,-71.1238250732422,45 Day St,Davis Square,Somerville,MA,02144,US,6177760552,"",EST,"",Active
Noor Mediterranean Grill,Mediterranean,42.4005508,-71.1175461,136 College Ave,"Somerville, MA 02144",Somerville,MA,02144,US,6176256667,"",EST,"",Active
Linda's Donuts,Donuts,42.3769472286618,-71.1618651750917,247 Belmont St,"Belmont, MA 02478",Belmont,MA,02478,US,6174849844,"",EST,"",Active
Café Mami,Japanese,42.38729,-71.11839,1815 Massachusetts Ave,Porter Square,Cambridge,MA,02140,US,6175479130,"",EST,"",Active
Ripples,Hair Salons,42.4143531918526,-71.1502303183079,309 Broadway,Arlington Center,Arlington,MA,02474,US,7816469800,"",EST,"",Active
Sarah's School of Martial Arts,Martial Arts,42.4215770512819,-71.1722539365292,1100 Massachusetts Ave,"Arlington, MA 02476",Arlington,MA,02476,US,7816410262,"",EST,"",Active
Paul Gerzon,Handyman,42.4204254150391,-71.1566619873047,"Arlington, MA 02474",,Arlington,MA,02474,US,7815071115,"",EST,"",Active
Century 21 Adams,Real Estate Services,42.4240494,-71.1834335,75 Park Ave,Arlington Heights,Arlington,MA,02476,US,7816486900,"",EST,"",Active
L'Impasto,Italian,42.3944337,-71.1267771,2263 Massachusetts Ave,North Cambridge,Cambridge,MA,02140,US,6174911901,"",EST,"",Active
Cha Yen Thai Cookery,Thai,42.3707814,-71.1582909,613 Mt Auburn St,"Watertown, MA 02472",Watertown,MA,02472,US,6173930031,"",EST,"",Active
Kim's Cleaners and Tailor,Dry Cleaning & Laundry,42.4123,-71.148407,369 Massachusetts Avenue,East Arlington,Arlington,MA,02474,US,7816466633,"",EST,"",Active
Cigar and Lounge,Tobacco Shops,42.3682996630669,-71.1609511077404,56 Dexter Ave,"Watertown, MA 02472",Watertown,MA,02472,US,6173931645,"",EST,"",Active
Snappy Pattys,American (New),42.4210657,-71.1315868,454 High St,"Medford, MA 02155",Medford,MA,02155,US,7812144440,"",EST,"",Active
Hana Sushi,Sushi Bars,42.3966599,-71.1296463,2372 Massachusetts Ave,North Cambridge,Cambridge,MA,02140,US,6178682121,"",EST,"",Active
Bubbling Brook Acupuncture,Acupuncture,42.4052773,-71.1418762,180 Massachusetts Ave,East Arlington,Arlington,MA,02474,US,6179705721,"",EST,"",Active
Petsi Pies,Bakeries,42.3835,-71.11253,285 Beacon St,"Somerville, MA 02143",Somerville,MA,02143,US,6176617437,"",EST,"",Active
Cancer Dudes Live More,Health & Medical,42.40731,-71.138863,57 Cleveland St,East Arlington,Arlington,MA,02474,US,6175041313,"",EST,"",Active
Clay Dreams,Party & Event Planning,42.4056816,-71.141777,183 Massachusetts Ave,East Arlington,Arlington,MA,02474,US,7816413000,"",EST,"",Active
T.W. Food,French,42.38371,-71.1343799,377 Walden St,"Cambridge, MA 02138",Cambridge,MA,02138,US,6178644745,"",EST,"",Active
Greater Boston Motorsports,Motorcycle Dealers,42.4212875366211,-71.1722717285156,1098 Massachusetts Ave,"Arlington, MA 02476",Arlington,MA,02476,US,7816481300,"",EST,"",Active
Sacco's Bowl Haven,Bowling,42.3957443237305,-71.1238174438477,45 Day St,Davis Square,Somerville,MA,02144,US,6177760552,"",EST,"",Active
Mystic Wine Shoppe,"Beer, Wine & Spirits",42.4176399885449,-71.1641099653341,901 Massachusetts Ave,Arlington Center,Arlington,MA,02476,US,7816462100,"",EST,"",Active
All Star Dry Cleaning & Tailoring,Dry Cleaning & Laundry,42.4235786497593,-71.1756563186646,1195 Massachusetts Avenue,Arlington Heights,Arlington,MA,02476,US,7816430721,"",EST,"",Active
Noune Karapetian & Allen Babroudi,Real Estate Agents,42.4151306152344,-71.1767044067383,Arlington Heights,"Arlington, MA 02476",Arlington,MA,02476,US,6172567097,"",EST,"",Active
Masala,Indian,42.4031482,-71.1265681,1127 Broadway,Teele Square,Somerville,MA,02144,US,6177180703,"",EST,"",Active
Praliné,Coffee & Tea,42.3764241989172,-71.1591115625008,203 Belmont St,"Belmont, MA 02478",Belmont,MA,02478,US,6179321131,"",EST,"",Active
ANI Catering & Cafe,Middle Eastern,42.3802599156866,-71.1813931018524,687 Belmont St,"Belmont, MA 02478",Belmont,MA,02478,US,6174846161,"",EST,"",Active
Modelos Market Cafe,Butcher,42.3962375,-71.1032747,501 Medford St,"Somerville, MA 02145",Somerville,MA,02145,US,6176252868,"",EST,"",Active
China Cafe,Chinese,42.4172516,-71.1637268,882 Massachusetts Ave,Arlington Center,Arlington,MA,02476,US,7816466621,"",EST,"",Active
Simon's Coffee Shop,Coffee & Tea,42.3842878,-71.1196151,1736 Mass Ave,Porter Square,Cambridge,MA,02138,US,6174977766,"",EST,"",Active
Zaika Taste of India,Indian,42.4070663452148,-71.0921783447266,3850 Mystic Valley Pkwy,"Medford, MA 02155",Medford,MA,02155,US,7812194525,"",EST,"",Active
Armando's Pizza & Subs,Pizza,42.3823437094688,-71.1312181502581,163 Huron Ave,Huron Village,Cambridge,MA,02138,US,6173548275,"",EST,"",Active
The Village Kitchen,Italian,42.38146,-71.13848,359 Huron Ave,Huron Village,Cambridge,MA,02138,US,6174913133,"",EST,"",Active
Body & Brain Arlington,Yoga,42.4146984,-71.1508006,325 Broadway,Arlington Center,Arlington,MA,02474,US,7816489642,"",EST,"",Active
Cafe Barada,Caterers,42.3947982788086,-71.1268615722656,2269 Massachusetts Ave,North Cambridge,Cambridge,MA,02140,US,6173544446,"",EST,"",Active
Posto,Italian,42.393284,-71.120354,187 Elm St,Davis Square,Somerville,MA,02144,US,6176250600,"",EST,"",Active
Tasty Mo:Mo,Himalayan/Nepalese,42.3963430992908,-71.103540351711,503 Medford St,"Somerville, MA 02145",Somerville,MA,02145,US,6177640222,"",EST,"",Active
Pepe Bocca,Specialty Food,42.3959694,-71.12146,414 Highland Ave,Davis Square,Somerville,MA,02144,US,6177766687,"",EST,"",Active
McCabe's on Mass,American (New),42.3909052,-71.1225779,2046 Massachusetts Ave,Porter Square,Cambridge,MA,02140,US,6179457115,"",EST,"",Active
Gulf Gas Station,Gas & Service Stations,42.4147071838379,-71.1387176513672,85 River Street,East Arlington,Arlington,MA,02474,US,,"",EST,"",Active
Elite Medspa & Wellness,Medical Spas,42.402228936553,-71.1377634108067,61 Massachusetts Ave,North Cambridge,Arlington,MA,02474,US,7818595784,"",EST,"",Active
LA Burdick Handmade Chocolates,Coffee & Tea,42.3743,-71.12211,52 Brattle St,Ste D,Cambridge,MA,02138,US,6174914340,"",EST,"",Active
Brite Whites Laundromat,Dry Cleaning & Laundry,42.4234485626221,-71.1748878657818,1177 Massachusetts Ave,Arlington Heights,Arlington,MA,02476,US,7816482471,"",EST,"",Active
French in The Kitchen,Cooking Classes,42.4276886,-71.1855927,191 Lowell St,Arlington Heights,Arlington,MA,02474,US,8574458636,"",EST,"",Active
Brennan Plumbing & Heating,Plumbing,42.414299,-71.186386,114 Rhinecliff St,Arlington Heights,Arlington,MA,02476,US,7816482737,"",EST,"",Active
Oasis Cafe & Bakery,Cafes,42.4052731,-71.1081618,377 Main St,"Medford, MA 02155",Medford,MA,02155,US,7813069610,"",EST,"",Active
Edith M Fox Branch Library,Libraries,42.4055786,-71.1416473,175 Massachusetts Ave,East Arlington,Arlington,MA,02474,US,7813163198,"",EST,"",Active
True Grounds,Coffee & Tea,42.4001263,-71.1123759,717 Broadway,"Somerville, MA 02144",Somerville,MA,02144,US,6175919559,"",EST,"",Active
Ma Magoo's Pizza & Sub Shop,Pizza,42.387989,-71.1424332,6 Concord Ln,"Cambridge, MA 02138",Cambridge,MA,02138,US,6173549139,"",EST,"",Active
RCN Boston,Television Service Providers,42.4184303,-71.1668625,956 Massachusetts Ave,Arlington Center,Arlington,MA,02476,US,8007464726,"",EST,"",Active
Whole Foods Market,Grocery,42.416355,-71.158993,808 Massachusetts Ave,Arlington Center,Arlington,MA,02476,US,7817777200,"",EST,"",Active
Maida Pharmacy,Health & Medical,42.4040756,-71.1398697,121 Massachusetts Ave,East Arlington,Arlington,MA,02474,US,7816437840,"",EST,"",Active
Mystic Coffee Roaster,Coffee & Tea,42.4179969727993,-71.1086634546518,30 Riverside Ave,"Medford, MA 02155",Medford,MA,02155,US,7813910042,"",EST,"",Active
Toad,Music Venues,42.3889043927193,-71.1197222024202,1912 Massachusetts Ave,Porter Square,Cambridge,MA,02140,US,6174974950,"",EST,"",Active
Little Flowers Daycare,Preschools,42.4236488342285,-71.1869888305664,10 Spring Rd,Arlington Heights,Arlington,MA,02476,US,7816462159,"",EST,"",Active
Rosebud American Kitchen and Bar,Barbeque,42.394443,-71.120803,381 Summer St,Davis Square,Somerville,MA,02144,US,6176299500,"",EST,"",Active
Genki Ya,Sushi Bars,42.3892615851878,-71.1435215355563,231 Alewife Brook Pkwy,"Cambridge, MA 02138",Cambridge,MA,02138,US,6176618200,"",EST,"",Active
Newtowne Grille,Pizza,42.3897728,-71.1203033,1945 Massachusetts Ave,Porter Square,Cambridge,MA,02140,US,6176610706,"",EST,"",Active
Pennypackers Fine Food,Soup,42.3965075559365,-71.1039555072784,514C Medford St,"Somerville, MA 02145",Somerville,MA,02145,US,8575238053,"",EST,"",Active
Ten Tables,American (New),42.3793334960938,-71.1274337768555,5 Craigie Cir,"Cambridge, MA 02138",Cambridge,MA,02138,US,6175765444,"",EST,"",Active
Arlington Swifty Printing,Printing Services,42.424328,-71.184738,1386 Massachusetts Ave,Arlington Heights,Arlington,MA,02476,US,7816468700,"",EST,"",Active
SOFRA Bakery & Cafe,Middle Eastern,42.375666,-71.150408,1 Belmont St,"Cambridge, MA 02138",Cambridge,MA,02138,US,6176613161,"",EST,"",Active
Boston Burger Company,Burgers,42.3962181061506,-71.1221663653851,37 Davis Sq,Davis Square,Somerville,MA,02144,US,6174407361,"",EST,"",Active
House of Chang,Chinese,42.3836097121239,-71.1336797475815,282 Concord Ave,"Cambridge, MA 02138",Cambridge,MA,02138,US,6175479888,"",EST,"",Active
Sarah's Market & Cafe,Grocery,42.38227804232,-71.130977064721,200 Concord Ave,Huron Village,Cambridge,MA,02138,US,6178765999,"",EST,"",Active
Highland Kitchen,American (New),42.388187,-71.103249,150 Highland Ave,"Somerville, MA 02143",Somerville,MA,02143,US,6176251131,"",EST,"",Active
Enterprise Rent-A-Car,Car Rental,42.420614,-71.16685,4 Dudley Place,Arlington Center,Arlington,MA,02476,US,7816431558,"",EST,"",Active
Arlington Auto Body,Body Shops,42.420372,-71.166931,14 Dudley Ct,Arlington Center,Arlington,MA,02476,US,7816489580,"",EST,"",Active
Tu Y Yo,Mexican,42.4008495,-71.117687,858 Broadway,"Somerville, MA 02144",Somerville,MA,02144,US,6176235411,"",EST,"",Active
Pescatore,Italian,42.39943,-71.1114599,158 Boston Ave,"Somerville, MA 02144",Somerville,MA,02144,US,6176230003,"",EST,"",Active
Tasting Counter,American (New),42.3817829,-71.1056689,14 Tyler St,"Somerville, MA 02143",Somerville,MA,02143,US,6172996362,"",EST,"",Active
The Artful Heart Gallery,Arts & Crafts,42.4143545329571,-71.1502336710691,311 Broadway,Arlington Center,Arlington,MA,02474,US,7817771533,"",EST,"",Active
Janette Tailoring & Alteration Wedding Gown Specialsts,Sewing & Alterations,42.416637763381,-71.158936098218,805 Massachusetts Avenue,Arlington Center,Arlington,MA,02476,US,7816468410,"",EST,"",Active
Danish Pastry House,Bakeries,42.411740136395,-71.121814148865,330 Boston Ave,"Medford, MA 02155",Medford,MA,02155,US,7813968999,"",EST,"",Active
Diesel Cafe,Coffee & Tea,42.3957187378513,-71.1218841161788,257 Elm St,Davis Square,Somerville,MA,02144,US,6176298717,"",EST,"",Active
Rod Dee Thai Cuisine,Thai,42.3889043927193,-71.1197222024202,1906 Massachusetts Ave,Porter Square,Cambridge,MA,02140,US,6173749252,"",EST,"",Active
Meat Spot,Delis,42.3659096,-71.1836014,28 Mt Auburn St,"Watertown, MA 02472",Watertown,MA,02472,US,6179239730,"",EST,"",Active
Sarma,Middle Eastern,42.3881803,-71.0955453,249 Pearl St,"Somerville, MA 02145",Somerville,MA,02145,US,6177644464,"",EST,"",Active
Qing Dao Garden,Chinese,42.39685,-71.12987,2382 Massachusetts Ave,North Cambridge,Cambridge,MA,02138,US,6174927540,"",EST,"",Active
Renee's Cafe,Breakfast & Brunch,42.401612400905,-71.126606585472,198 Holland St,"Somerville, MA 02144",Somerville,MA,02144,US,6176232727,"",EST,"",Active
Teriyaki House,Japanese,42.4007072,-71.1178131,868 Broadway,"Somerville, MA 02144",Somerville,MA,02144,US,6177643151,"",EST,"",Active
Magic Bites Bakery,Bakeries,42.4177049,-71.1648675,916 Massachusetts Ave,Arlington Center,Arlington,MA,02476,US,7813161633,"",EST,"",Active
Gentle Dental,General Dentistry,42.416378,-71.1564331,725 Massachusetts Ave,Arlington Center,Arlington,MA,02474,US,7816430010,"",EST,"",Active
Merle Norman Cosmetics Skin Care & Nails,Cosmetics & Beauty Supply,42.4162582308054,-71.1562136560678,715 Massachusetts Ave,Arlington Center,Arlington,MA,02476,US,7816435454,"",EST,"",Active
Kung Fu Tea,Coffee & Tea,42.3950044065714,-71.1215595155954,237 Elm St,Davis Square,Somerville,MA,02144,US,6176165428,"",EST,"",Active
Oasis Brazilian Steakhouse,Brazilian,42.4052543640137,-71.1082382202148,373 Main St,"Medford, MA 02155",Medford,MA,02155,US,7813968337,"",EST,"",Active
Laura's Sewing School,Art Schools,42.4165579676628,-71.158360093832,785 Massachusetts Ave,Arlington Center,Arlington,MA,02476,US,7816462463,"",EST,"",Active
J.P. Licks,Ice Cream & Frozen Yogurt,42.396965906591,-71.12239648194,4A College Ave,Davis Square,Somerville,MA,02144,US,6176665079,"",EST,"",Active
Demet's Donuts,Donuts,42.4080276,-71.1040039,199 Mystic Ave,"Medford, MA 02155",Medford,MA,02155,US,7813958422,"",EST,"",Active
Autowater Irrigation Co.,Irrigation,42.425150424242,-71.1739403754473,33 Ryder St,Arlington Heights,Arlington,MA,02476,US,7818631000,"",EST,"",Active
Brigham Square,Apartments,42.418633,-71.15889,30 Mill St,Arlington Center,Arlington,MA,02476,US,7816434938,"",EST,"",Active
Moulton's Seafood Restaurant,Seafood,42.4164188,-71.1186594,178 Winthrop St,"Medford, MA 02155",Medford,MA,02155,US,7813966466,"",EST,"",Active
Maragret Ryding,Acupuncture,42.4132025241852,-71.1494041979313,393 Massachusetts Ave,Arlington Center,Arlington,MA,02474,US,7816412195,"",EST,"",Active
Fashion Cake Boutique,Cupcakes,42.4057278,-71.1423086,2 Lake St,East Arlington,Arlington,MA,02474,US,7816482253,"",EST,"",Active
TD Bank,Banks & Credit Unions,42.4171143,-71.1632919,880 Massachusetts Ave,Arlington Center,Arlington,MA,02476,US,7816410050,"",EST,"",Active
Sabur,Mediterranean,42.4021175,-71.1268009,212 Holland St,Teele Square,Somerville,MA,02144,US,6177767890,"",EST,"",Active
"Leader Mortgage Company, Inc",Mortgage Brokers,42.4052773,-71.1418762,180 Massachusetts Ave,East Arlington,Arlington,MA,02474,US,7816487900,"",EST,"",Active
Advanced Mobile Audio,Car Stereo Installation,42.413467,-71.145302,84 Warren Street,East Arlington,Arlington,MA,02474,US,7816468000,"",EST,"",Active
Middlesex Fells Reservation,Parks,42.434733,-71.11547,S Border Rd,"Medford, MA 02155",Medford,MA,02155,US,7813222851,"",EST,"",Active
Bellmont Caffe,Coffee & Tea,42.398583,-71.175123,80 Leonard St,"Belmont, MA 02478",Belmont,MA,02478,US,6174848100,"",EST,"",Active
New Asia,Chinese,42.4055904150009,-71.1421273648739,194 Massachusetts Ave,East Arlington,Arlington,MA,02474,US,7816436364,"",EST,"",Active
Leone's Sub & Pizza,Sandwiches,42.3918724060059,-71.0926055908203,292 Broadway,"Somerville, MA 02145",Somerville,MA,02145,US,6177762511,"",EST,"",Active
Superior Auto Center,Tires,42.4018346518278,-71.1374670267105,36 Massachusetts Ave,North Cambridge,Arlington,MA,02474,US,7816463660,"",EST,"",Active
Anna's Taqueria,Mexican,42.394855,-71.121872,236 Elm St,Davis Square,Somerville,MA,02144,US,6176663900,"",EST,"",Active
CVS Pharmacy,Drugstores,42.4173393,-71.1604385,833 Massachusetts Ave,Arlington Center,Arlington,MA,02476,US,7816434272,"",EST,"",Active
7 Star Grocery,Convenience Stores,42.4149177968502,-71.1511188000441,6 Medford St,Arlington Center,Arlington,MA,02474,US,7816431255,"",EST,"",Active
Charlene's Barber Shop,Barbers,42.4166222,-71.1601028,824 Massachusetts Ave,Arlington Center,Arlington,MA,02476,US,7816464434,"",EST,"",Active
Gran Gusto,Italian,42.3884888,-71.1323776,90 Sherman St,"Cambridge, MA 02140",Cambridge,MA,02140,US,6174410400,"",EST,"",Active
Pizza Roma,Pizza,42.377144,-71.188377,212 Waverley Ave,"Watertown, MA 02472",Watertown,MA,02472,US,6179249595,"",EST,"",Active
Heights Barber Shop,Barbers,42.4243276566267,-71.1825978755951,1317 Massachusetts Ave,Arlington Heights,Arlington,MA,02476,US,7816489686,"",EST,"",Active
"John W Archibald, OD",Optometrists,42.4149097502232,-71.1519851535559,476 Massachusetts Ave,Arlington Center,Arlington,MA,02474,US,7816482342,"",EST,"",Active
Capone Foods,Specialty Food,42.380615234375,-71.0971984863281,14 Bow St,"Somerville, MA 02143",Somerville,MA,02143,US,6176292296,"",EST,"",Active
Petiscos,Brazilian,42.3965735,-71.1037009,513 Medford St,"Somerville, MA 02145",Somerville,MA,02145,US,6177762049,"",EST,"",Active
Personal Care Chiropractic & Massage,Chiropractors,42.4030922,-71.1391248,104 Massachusetts Ave,North Cambridge,Arlington,MA,02474,US,7816414482,"",EST,"",Active
Johnny D's,Bars,42.3973251879215,-71.1231138557196,17 Holland St,Davis Square,Somerville,MA,02144,US,6177762004,"",EST,"",Active
Lynne's Nails,Nail Salons,42.4187171459198,-71.1667862534523,964 Massachusetts Avenue,Arlington Center,Arlington,MA,02476,US,7816464669,"",EST,"",Active
Super Fusion Cuisine,Asian Fusion,42.3662796,-71.1825867,54 Mt Auburn St,"Watertown, MA 02472",Watertown,MA,02472,US,6173930008,"",EST,"",Active
Blush Salon,Hair Salons,42.4241829,-71.1777573,1241 Massachusetts Ave,Arlington Heights,Arlington,MA,02476,US,7814833500,"",EST,"",Active
iYo Cafe,Ice Cream & Frozen Yogurt,42.3948593,-71.121727,234 Elm St,Davis Square,Somerville,MA,02144,US,6177645295,"",EST,"",Active
Alex's Kitchen,Sandwiches,42.3684740066528,-71.1605414003134,107 Nichols Ave,"Watertown, MA 02472",Watertown,MA,02472,US,6173939898,"",EST,"",Active
Pintxo Pincho Tapas Bar,Tapas Bars,42.4799221309322,-71.1516366441807,385 Main St,"Woburn, MA 01801",Woburn,MA,01801,US,7819321379,"",EST,"",Active
Il Casale,Italian,42.397428892592,-71.17565620644099,50 Leonard St,"Belmont, MA 02478",Belmont,MA,02478,US,6172094942,"",EST,"",Active
Suburban Residential Real Estate,Apartments,42.421013,-71.169117,1337 Mass Ave,Ste 175,Arlington,MA,02476,US,7813255765,"",EST,"",Active
Arlington Fuel,Heating & Air Conditioning/HVAC,42.4116096,-71.1432877,177 Broadway,East Arlington,Arlington,MA,02474,US,7816434630,"",EST,"",Active
Gold's Gym,Gyms,42.4250984,-71.1811829,30 Park Ave,Arlington Heights,Arlington,MA,02476,US,7816464653,"",EST,"",Active
Lizard Lounge,Music Venues,42.3820838928223,-71.1192016601562,1667 Massachusetts Ave,Porter Square,Cambridge,MA,02138,US,6175470759,"",EST,"",Active
Redbones BBQ,Barbeque,42.39521,-71.12236,55 Chester St,Davis Square,Somerville,MA,02144,US,6176282200,"",EST,"",Active
Lahey Hospital,Hospitals,42.4080236,-71.1359641,37 Broadway,East Arlington,Arlington,MA,01913,US,7816410100,"",EST,"",Active
Alden & Harlow,American (Traditional),42.373561,-71.121464,40 Brattle St,Harvard Square,Cambridge,MA,02138,US,6178642100,"",EST,"",Active
The Painted Burro,Mexican,42.3947029,-71.1212387,219 Elm St,Davis Square,Somerville,MA,02144,US,6177760005,"",EST,"",Active
Bagelsaurus,Sandwiches,42.3860588,-71.1194534,1796 Massachusetts Ave,Porter Square,Cambridge,MA,02140,US,8572856103,"",EST,"",Active
Taco Party,Mexican,42.4001764,-71.1122954,711 Broadway,"Somerville, MA 02144",Somerville,MA,02144,US,6177640683,"",EST,"",Active
Danehy Park,Parks,42.3884583,-71.1326904,99 Sherman St,"Cambridge, MA 02238",Cambridge,MA,02238,US,,"",EST,"",Active
Firefly Moon,Flowers & Gifts,42.4243082106113,-71.1821311712265,1305 Massachusetts Ave,Arlington Heights,Arlington,MA,02476,US,7819990965,"",EST,"",Active
"Fuse Landscape Design, Inc.",Gardeners,42.4204254150391,-71.1566619873047,"Arlington, MA 02474",,Arlington,MA,02474,US,6178957412,"",EST,"",Active
Arlex Auto Driving School,Driving Schools,42.4111404,-71.1484375,352 Massachusetts Avenue,East Arlington,Arlington,MA,02474,US,7816436657,"",EST,"",Active
PJ Ryans,Pubs,42.402784905325,-71.126818144571,239 Holland St,Teele Square,Somerville,MA,02144,US,6176258200,"",EST,"",Active
Deli-icious,Delis,42.3971273750067,-71.121975928545,20 College Ave,Davis Square,Somerville,MA,02144,US,6176294444,"",EST,"",Active
Ariana Restaurant,Afghan,42.3625232865598,-71.1388816773072,384 Western Ave,"Boston, MA 02135",Boston,MA,02135,US,6172088072,"",EST,"",Active
backbar,Cocktail Bars,42.3797392845154,-71.0945945978165,7 Sanborn Ct,"Somerville, MA 02143",Somerville,MA,02143,US,6177180249,"",EST,"",Active
Dali Restaurant & Tapas Bar,Spanish,42.378361733586,-71.1067021505605,415 Washington St,"Somerville, MA 02143",Somerville,MA,02143,US,6176613254,"",EST,"",Active
Quebrada Baking Company,Bakeries,42.3967094,-71.1754574,19 Leonard St,"Belmont, MA 02478",Belmont,MA,02478,US,6174842525,"",EST,"",Active
Strip-T's Restaurant,Sandwiches,42.3658362,-71.1657797,93 School St,"Watertown, MA 02472",Watertown,MA,02472,US,6179234330,"",EST,"",Active
Sound Bites,Breakfast & Brunch,42.3997650146484,-71.112434387207,704 Broadway,"Somerville, MA 02144",Somerville,MA,02144,US,6176238338,"",EST,"",Active
Patou Thai,Thai,42.3978315,-71.1749115,69 Leonard St,"Belmont, MA 02478",Belmont,MA,02478,US,6174896999,"",EST,"",Active
Sligo Pub,Pubs,42.3950398,-71.1215114,237 Elm St,Davis Square,Somerville,MA,02144,US,6176254477,"",EST,"",Active
Red Lentil Vegetarian & Vegan Restaurant,Vegan,42.370995,-71.1585523,600 Mt Auburn St,"Watertown, MA 02472",Watertown,MA,02472,US,6179729188,"",EST,"",Active
Yume Wo Katare,Ramen,42.38939,-71.11976,1923 Massachusetts Ave,Porter Square,Cambridge,MA,02140,US,6177144008,"",EST,"",Active
Minute Man Repair,Local Services,42.403419,-71.1390294,111 Massachusetts Ave,North Cambridge,Arlington,MA,02474,US,7816466190,"",EST,"",Active
Deluxe Town Diner,Diners,42.3709564208984,-71.1579818725586,627 Mt Auburn St,"Watertown, MA 02472",Watertown,MA,02472,US,6179268400,"",EST,"",Active
Alamo Roast Beef & Seafood,Seafood,42.418384552002,-71.108692958951,21 Salem St,"Medford, MA 02155",Medford,MA,02155,US,7813962434,"",EST,"",Active
Pinocchios Pizza & Subs,Pizza,42.3718364,-71.1201984,74 Winthrop St,Harvard Square,Cambridge,MA,02138,US,6178764897,"",EST,"",Active
Five Horses Tavern,American (Traditional),42.3956718,-71.1208572,400 Highland Ave,Davis Square,Somerville,MA,02144,US,6177641655,"",EST,"",Active
Taipei Gourmet,Taiwanese,42.4265099,-71.1965637,211 Massachusetts Ave,"Lexington, MA 02420",Lexington,MA,02420,US,7815416999,"",EST,"",Active
Bella Decor,Furniture Reupholstery,42.424511,-71.1835709,1343 Massacusetts Ave,Arlington Heights,Arlington,MA,02476,US,7817772419,"",EST,"",Active
Donuts With A Difference,Coffee & Tea,42.4178796261549,-71.1085883527994,35 Riverside Ave,"Medford, MA 02155",Medford,MA,02155,US,7813961021,"",EST,"",Active
A Tavola,Italian,42.451448,-71.1389844,34 Church St,"Winchester, MA 01890",Winchester,MA,01890,US,7817291040,"",EST,"",Active
Magnificent Muffin & Bagel Shoppe,Bakeries,42.4028991269781,-71.1266525229512,1118 Broadway,Teele Square,Somerville,MA,02144,US,6176289000,"",EST,"",Active
La Cascia's Bakery,Bakeries,42.403751373291,-71.1070175170898,418 Main St,"Medford, MA 02155",Medford,MA,02155,US,7813965041,"",EST,"",Active
The Shops at Porter,Japanese,42.3871916506057,-71.1187779364014,University Hall,1815 Massachusetts Ave,Cambridge,MA,02140,US,,"",EST,"",Active
D'Agostino's Delicatessen,Delis,42.4514556,-71.1382484,11 Waterfield Rd,"Winchester, MA 01890",Winchester,MA,01890,US,7817297984,"",EST,"",Active
Out of the Blue,Seafood,42.3946686,-71.1212234,215 Elm St,Davis Square,Somerville,MA,02144,US,6177765020,"",EST,"",Active
The Table At Season To Taste,American (New),42.3983409,-71.1310318,2447 Massachusetts Ave,North Cambridge,Cambridge,MA,02140,US,6178269037,"",EST,"",Active
Beaver Brook Reservation,Landmarks & Historical Buildings,42.3927285522223,-71.1961470544338,66 Mill St,"Belmont, MA 02478",Belmont,MA,02478,US,6174846357,"",EST,"",Active
Kelly's Diner,Diners,42.399618193062,-71.111559925335,674 Broadway St,"Somerville, MA 02144",Somerville,MA,02144,US,6176238102,"",EST,"",Active
Martsa On Elm,Himalayan/Nepalese,42.3950691,-71.1213531,233 Elm St,Ste A,Somerville,MA,02144,US,6176660660,"",EST,"",Active
FoMu,Cafes,42.3537889122963,-71.1370251327753,481 Cambridge St,Allston/Brighton,Allston,MA,02134,US,6179033276,"",EST,"",Active
Angelina's Pizzeria,Pizza,42.4024391,-71.1269836,230 Holland St,Teele Square,Somerville,MA,02144,US,6177761240,"",EST,"",Active
Falafel Place,Falafel,42.3948936,-71.0977325,Winter Hill,1 Main St,Somerville,MA,02145,US,6177642336,"",EST,"",Active
Blue Fuji,Asian Fusion,42.4185381268269,-71.1082255840302,38 Salem St,"Medford, MA 02155",Medford,MA,02155,US,7813881888,"",EST,"",Active
Mass Audubon's Habitat Education Center & Wildlife Sanctuary,Parks,42.403,-71.1849,10 Juniper Rd,"Belmont, MA 02478",Belmont,MA,02478,US,6174895050,"",EST,"",Active
Louie's Pizza,Pizza,42.4709816,-71.1502533,118 Main St,"Woburn, MA 01801",Woburn,MA,01801,US,7819332696,"",EST,"",Active
Victor's Deli,Delis,42.3998107910156,-71.1125717163086,710 Broadway,"Somerville, MA 02144",Somerville,MA,02144,US,6176253076,"",EST,"",Active
Cafe Zing,Coffee & Tea,42.389626783162,-71.11900032752,25 White St,Porter Square,Cambridge,MA,02140,US,6174979464,"",EST,"",Active
Saloon,American (Traditional),42.3956413269043,-71.1216659545898,255 Elm St,Davis Square,Somerville,MA,02144,US,6176284444,"",EST,"",Active
Laurie Randazzo Williamson - Homes North of Boston,Real Estate Agents,42.4577039,-71.139011,RE/MAX Leading Edge,319 Massachusetts Avenue,Arlington,MA,02474,US,6175124581,"",EST,"",Active
Fresh Pond,Parks,42.3825844377279,-71.1431968957186,200 Fresh Pond Pkwy,"Cambridge, MA 02238",Cambridge,MA,02238,US,,"",EST,"",Active
Ventmaster,Contractors,42.402985,-71.136261,35 Henderson St,North Cambridge,Arlington,MA,02474,US,7816437501,"",EST,"",Active
Eastern Lamejun Bakers,Bakeries,42.3754926770926,-71.1561231315136,145 Belmont St,"Belmont, MA 02478",Belmont,MA,02478,US,6174845239,"",EST,"",Active
Cafe Deia,Breakfast & Brunch,42.404747,-71.1075745,394 Main St,Ste B,Medford,MA,02155,US,7812194929,"",EST,"",Active
Not Your Average Joes,Bars,42.4158061351695,-71.1538576042649,645 Mass Ave,Arlington Center,Arlington,MA,02476,US,7816431666,"",EST,"",Active
The Neighborhood Restaurant & Bakery,Bakeries,42.3814903,-71.0973688,25 Bow St,"Somerville, MA 02143",Somerville,MA,02143,US,6176239710,"",EST,"",Active
Roksana's,Persian/Iranian,42.367857424116,-71.178693491752,133 Mount Auburn St,"Watertown, MA 02472",Watertown,MA,02472,US,6173932229,"",EST,"",Active
West Side Lounge,Lounges,42.3824462890625,-71.1200790405273,1680 Massachusetts Ave,Porter Square,Cambridge,MA,02138,US,6174415566,"",EST,"",Active
Arlington Family Practice,Doctors,42.41756,-71.15792,22 Mill St,Ste 101,Arlington,MA,02474,US,7816464345,"",EST,"",Active
Christopher's,Bars,42.3890113830566,-71.1200332641602,1920 Massachusetts Ave,Porter Square,Cambridge,MA,02140,US,6178769180,"",EST,"",Active
Bergamot,American (New),42.378104828163,-71.106322143569,118 Beacon St,"Somerville, MA 02143",Somerville,MA,02143,US,6175767700,"",EST,"",Active
Machu Chicken,Peruvian,42.379965194776,-71.096731193915,25 Union Sq,"Somerville, MA 02143",Somerville,MA,02143,US,6176237972,"",EST,"",Active
The Arlington Center,Acupuncture,42.41246,-71.14856,369 Massachusetts Ave,East Arlington,Arlington,MA,02474,US,7813160282,"",EST,"",Active
Tamper,Coffee & Tea,42.411541,-71.1214905,340 Boston Ave,"Medford, MA 02155",Medford,MA,02155,US,,"",EST,"",Active
Taqueria El Amigo,Mexican,42.3704870045185,-71.2207898497581,196 Willow St,"Waltham, MA 02453",Waltham,MA,02453,US,7816427410,"",EST,"",Active
Darwin's Ltd,Delis,42.374,-71.12499,148 Mt Auburn St,Harvard Square,Cambridge,MA,02138,US,6173545233,"",EST,"",Active
Tom Yum Koong,Thai,42.4187316894531,-71.1090774536133,11 Forest St,"Medford, MA 02155",Medford,MA,02155,US,7813930888,"",EST,"",Active
Alive & Kicking Lobsters,Seafood,42.36267,-71.11381,269 Putnam Ave,"Cambridge, MA 02139",Cambridge,MA,02139,US,6178760451,"",EST,"",Active
Olde Magoun's Saloon,Irish,42.3966331481934,-71.1041030883789,518 Medford St,"Somerville, MA 02145",Somerville,MA,02145,US,6177762600,"",EST,"",Active
Toscano,Italian,42.3742954075566,-71.1219486864798,52 Brattle St,Harvard Square,Cambridge,MA,02138,US,6173545250,"",EST,"",Active
Cambridge Common,American (Traditional),42.382133040905,-71.119461647643,1667 Massachusetts Ave,Porter Square,Cambridge,MA,02138,US,6175471228,"",EST,"",Active
Lemon Thai Cuisine,Thai,42.390251,-71.107674,215 Highland Ave,"Somerville, MA 02143",Somerville,MA,02143,US,6175911772,"",EST,"",Active
Russell House Tavern,American (New),42.373251,-71.119303,14 JFK St,Harvard Square,Cambridge,MA,02138,US,6175003055,"",EST,"",Active
House of Tibet Kitchen,Himalayan/Nepalese,42.4025709182024,-71.1267925053835,235 Holland St,Teele Square,Somerville,MA,02144,US,6176297567,"",EST,"",Active
Joe Sent Me,Pubs,42.39693,-71.12996,2388 Massachusetts Ave,North Cambridge,Cambridge,MA,02140,US,6174921116,"",EST,"",Active
Chilli Garden,Chinese,42.4178440868855,-71.108462959528,41 Riverside Ave,"Medford, MA 02155",Medford,MA,02155,US,7813968488,"",EST,"",Active
Daddy Jones,Bars,42.3969234,-71.1037934,525 Medford St,"Somerville, MA 02145",Somerville,MA,02145,US,6176909095,"",EST,"",Active
Bowes Real Estate Real Living,Real Estate Services,42.4195709,-71.1688385,1010 Massachusetts Ave,Arlington Center,Arlington,MA,02476,US,7816483500,"",EST,"",Active
Nine Bar Espresso,Coffee & Tea,42.3972380161285,-71.1230434477329,11 Holland St.,Davis Square,Somerville,MA,02144,US,6177641915,"",EST,"",Active
Oleana Restaurant,Mediterranean,42.37055,-71.09713,134 Hampshire St,Inman Square,Cambridge,MA,02139,US,6176610505,"",EST,"",Active
OTTO,Pizza,42.3741824179888,-71.1189034581184,1432 Massachusetts Ave,Harvard Square,Cambridge,MA,02138,US,6174993352,"",EST,"",Active
Crema Cafe,Coffee & Tea,42.373415,-71.120771,27 Brattle St,Harvard Square,Cambridge,MA,02138,US,6178762700,"",EST,"",Active
Vicki Lee's,Bakeries,42.3809184756181,-71.1750326774008,105 Trapelo Rd,"Belmont, MA 02478",Belmont,MA,02478,US,6174895007,"",EST,"",Active
The Druid,Pubs,42.37382,-71.10021,1357 Cambridge St,Inman Square,Cambridge,MA,02139,US,6174970965,"",EST,"",Active
Continentale Hair Salon,Hair Salons,42.4060593,-71.1428757,214 Massachusetts Ave,East Arlington,Arlington,MA,02474,US,7816480500,"",EST,"",Active
Dunkin' Donuts,Donuts,42.4099807739258,-71.1394424438477,101 Broadway,East Arlington,Arlington,MA,02474,US,7816437742,"",EST,"",Active
Punjabi Grill,Indian,42.3948517,-71.1218719,236 Elm St,Davis Square,Somerville,MA,02144,US,6177181599,"",EST,"",Active
Kitchen On Common,American (New),42.3814161170999,-71.1746627359765,442 Common St,"Belmont, MA 02478",Belmont,MA,02478,US,6174844328,"",EST,"",Active
Jim's Deli & Restaurant,Delis,42.3492849,-71.154215,371 Washington St,"Brighton, MA 02135",Brighton,MA,02135,US,6177872626,"",EST,"",Active
Full Moon,American (Traditional),42.3812292516232,-71.1379189789295,344 Huron Ave,Huron Village,Cambridge,MA,02138,US,6173546699,"",EST,"",Active
Life Alive,Vegetarian,42.366593014329,-71.105495948582,765 Mass Ave,Central Square,Cambridge,MA,02139,US,6173545433,"",EST,"",Active
Joe Pizza,Pizza,42.4205017,-71.1413269,634 High St,"West Medford, MA 02155",West Medford,MA,02155,US,7816485858,"",EST,"",Active
Utopia Cleaners,Dry Cleaning & Laundry,42.4243889,-71.1846542,1370 Massachusetts Ave,Arlington Heights,Arlington,MA,02476,US,7816484783,"",EST,"",Active
Blue Shirt Café,Sandwiches,42.396249861139,-71.121877428841,424 Highland Ave,Davis Square,Somerville,MA,02144,US,6176297641,"",EST,"",Active
Snappy Ramen,Ramen,42.3961565405978,-71.1218345008148,420 Highland Ave,Davis Square,Somerville,MA,02144,US,6176250400,"",EST,"",Active
Venus Pizza & Grill,Pizza,42.4057083,-71.1307907,1293 Broadway,Teele Square,Somerville,MA,02144,US,6177189900,"",EST,"",Active
Mill Brook Animal Clinic,Veterinarians,42.4235916,-71.1750946,1183 Massachusetts Ave,Arlington Heights,Arlington,MA,02476,US,7816431500,"",EST,"",Active
Shangri-La,Dim Sum,42.375615388155,-71.1564785242081,149 Belmont St,"Belmont, MA 02478",Belmont,MA,02478,US,6174891488,"",EST,"",Active
Nick's Place II,Pizza,42.396676528183,-71.17527133144901,6 Channing Rd,"Belmont, MA 02478",Belmont,MA,02478,US,6174842020,"",EST,"",Active
Stella's Pizza,Pizza,42.3706284,-71.158493,605 Mount Auburn St,"Watertown, MA 02472",Watertown,MA,02472,US,6179245692,"",EST,"",Active
Bull McCabe's,Pubs,42.3810112,-71.0993869,366A Somerville Ave,"Somerville, MA 02143",Somerville,MA,02143,US,6174406045,"",EST,"",Active
JP Licks,Ice Cream & Frozen Yogurt,42.3728905,-71.1175079,1312 Massachusetts Ave,Harvard Square,Cambridge,MA,02138,US,6174921001,"",EST,"",Active
Max and Leo's,Pizza,42.3569984,-71.1868362,325 Washington St,"Newton, MA 02458",Newton,MA,02458,US,6172447200,"",EST,"",Active
Main Event Tuxedo,Men's Clothing,42.4150658,-71.1516571,487 Massachusetts Ave,Arlington Center,Arlington,MA,02474,US,7816486800,"",EST,"",Active
Drumming Preparatory School,Musical Instruments & Teachers,42.410366,-71.145355,41 Foster St,East Arlington,Arlington,MA,02474,US,7817210490,"",EST,"",Active
Fordee's Falafel & Deli,Middle Eastern,42.3701099,-71.16025,555 Mt Auburn St,"Watertown, MA 02472",Watertown,MA,02472,US,6179233673,"",EST,"",Active
The Loading Dock,Diners,42.3952140222391,-71.1575580869268,11 Brighton St,"Belmont, MA 02478",Belmont,MA,02478,US,6174847671,"",EST,"",Active
Varinos Dental Associates of Arlington,Endodontists,42.4177405,-71.1579432,22 Mill St,Ste 104,Arlington,MA,02476,US,7816480279,"",EST,"",Active
Park Restaurant & Bar,American (New),42.3718681,-71.1208725,59 JFK St,Harvard Square,Cambridge,MA,02138,US,6174919851,"",EST,"",Active
Varallo Orthodontics,Orthodontists,42.417828,-71.1581635,22 Mill St,Ste 403,Arlington,MA,02476,US,7816489200,"",EST,"",Active
Temple Bar,American (New),42.38273,-71.12006,1688 Massachusetts Ave,Porter Square,Cambridge,MA,02138,US,6175475055,"",EST,"",Active
Arlington Optique Boutique,Eyewear & Opticians,42.4144516,-71.150238,313 Broadway,Arlington Center,Arlington,MA,02474,US,7816463470,"",EST,"",Active
Kashish,Indian,42.39754,-71.1751647,61 Leonard St,"Belmont, MA 02478",Belmont,MA,02478,US,6174845111,"",EST,"",Active
Sei Bar,Sushi Bars,42.413168,-71.1106377,182 Main St,"Medford, MA 02155",Medford,MA,02155,US,7813914363,"",EST,"",Active
Resourcery Bodywork,Massage,42.41332,-71.14923,393 Massachusetts Ave,Arlington Center,Arlington,MA,02474,US,7819641983,"",EST,"",Active
Arlington 360,Apartments,42.423377,-71.162327,4105 Symmes Cir,"Arlington, MA 02474",Arlington,MA,02474,US,7818595807,"",EST,"",Active
Remax Leading Edge,Real Estate Services,42.409863,-71.14695,311 Massachusetts Ave,East Arlington,Arlington,MA,02474,US,7816430430,"",EST,"",Active
Jose's Mexican Restaurant,Mexican,42.390184,-71.132848,131 Sherman St,"Cambridge, MA 02140",Cambridge,MA,02140,US,6173540335,"",EST,"",Active
Roast Beast,Sandwiches,42.351783181146,-71.1236789566271,1080 Commonwealth Ave,Allston/Brighton,Boston,MA,02215,US,6178778690,"",EST,"",Active
The Diner at 11 North Beacon,Diners,42.3649958521128,-71.1834058910608,11 N Beacon St,"Watertown, MA 02472",Watertown,MA,02472,US,6179232369,"",EST,"",Active
The Abbey,American (New),42.3851057658005,-71.1191113498644,1755 Massachusetts Ave,Porter Square,Cambridge,MA,02140,US,6177144944,"",EST,"",Active
Tealuxe,Coffee & Tea,42.376794,-71.127636,0 Brattle St,Harvard Square,Cambridge,MA,02138,US,6174410077,"",EST,"",Active
Craft Beer Cellar,"Beer, Wine & Spirits",42.397712,-71.175359,51 Leonard St,"Belmont, MA 02478",Belmont,MA,02478,US,6179321885,"",EST,"",Active
Sugar & Spice,Thai,42.38961,-71.11996,1933 Massachusetts Ave,Porter Square,Cambridge,MA,02140,US,6178684200,"",EST,"",Active
Sweet Ginger Thai Cuisine,Thai,42.3808403,-71.0973511,22 Bow St,"Somerville, MA 02143",Somerville,MA,02143,US,6176255015,"",EST,"",Active
Matilda's Sandwich Shoppe,Sandwiches,42.367866,-71.155303,1 A Crawford St,"Watertown, MA 02472",Watertown,MA,02472,US,6179260700,"",EST,"",Active
Pat Lordan Photography,Photographers,42.423183,-71.150314,45 Draper Ave,"Arlington, MA 02474",Arlington,MA,02474,US,7816437297,"",EST,"",Active
"Salvage, Ltd",Antiques,42.4033178,-71.139421,112 Massachusetts Ave,North Cambridge,Arlington,MA,02474,US,7818595690,"",EST,"",Active
Casa B,Spanish,42.3796333372593,-71.0943733155727,253 Washington St,"Somerville, MA 02143",Somerville,MA,02143,US,6177642180,"",EST,"",Active
2 Rivers Contracting & Services,Plumbing,42.411556,-71.142326,2 River St,East Arlington,Arlington,MA,02474,US,7816463026,"",EST,"",Active
Tampopo,Japanese,42.387291,-71.1183929,1815 Massachusetts Ave,Porter Square,Cambridge,MA,02140,US,6178685457,"",EST,"",Active
3 Country Bistro,Sushi Bars,42.479777996586,-71.151346379318,379 Main St,"Woburn, MA 01801",Woburn,MA,01801,US,7813768030,"",EST,"",Active
Royal India Bistro,Indian,42.4487940967083,-71.2289249897003,7 Meriam St,"Lexington, MA 02420",Lexington,MA,02420,US,7818617350,"",EST,"",Active
Amy's Salon,Hair Salons,42.423488,-71.174848,1179 Mass Ave,Arlington Heights,Arlington,MA,02476,US,7817771394,"",EST,"",Active
Foundry on Elm,Bars,42.3955522477627,-71.1219356954098,255 Elm St,Davis Square,Somerville,MA,02144,US,6176289999,"",EST,"",Active
Platinum Insurance Agency,Insurance,42.4136887,-71.1503906,418 Mass Ave.,Arlington Center,Arlington,MA,02474,US,7818595356,"",EST,"",Active
Emerging Bodywork,Massage,42.4077113717794,-71.14467009902,The Healing Ctr,259 Massachusetts Ave,Arlington,MA,02474,US,6178636302,"",EST,"",Active
Erik Taylor Massage Therapy,Massage Therapy,42.4147287011147,-71.1540558189154,42 Pleasant St,Arlington Center,Arlington,MA,02476,US,6177750724,"",EST,"",Active
"Melissa Crossen, DC",Chiropractors,42.4147287011147,-71.1540558189154,Arlington Chiropractic,42 Pleasant St,Arlington,MA,02476,US,7816484000,"",EST,"",Active
Everest Healthcare,Internal Medicine,42.4170195420534,-71.1581326360291,22 Mill St,Ste 207,Arlington,MA,02476,US,7817772320,"",EST,"",Active
Doukakis-Corsetti Insurance Agency Inc,Insurance,42.41756,-71.15792,22 Mill  St,Ste 410,Arlington,MA,02476,US,7816413300,"",EST,"",Active
Drikung Meditation Center,Buddhist Temples,42.41569,-71.16061,15 Bartlett Ave,Arlington Center,Arlington,MA,02476,US,8883905580,"",EST,"",Active
Bodytune Massage,Massage,42.4166374,-71.1602097,828 Massachusetts Ave,Arlington Center,Arlington,MA,02476,US,7816461020,"",EST,"",Active
The Kebab Factory,Indian,42.3780965,-71.1065573,414 Washington St,"Somerville, MA 02143",Somerville,MA,02143,US,6173544996,"",EST,"",Active
Rudy's Café,Mexican,42.40306,-71.1273,248 Holland St,Teele Square,Somerville,MA,02144,US,6176239201,"",EST,"",Active
Shanny Beer & Wine,"Beer, Wine & Spirits",42.4190551042557,-71.1579061299562,94 Summer St,Arlington Center,Arlington,MA,02474,US,7816410113,"",EST,"",Active
Bourbon Coffee,Cafes,42.387554,-71.119012,1815 Massachusetts Ave,Porter Square,Cambridge,MA,02140,US,6178686500,"",EST,"",Active
Belmont Pizza,Pizza,42.3857689,-71.1852264,388 Trapelo Road,"Belmont, MA 02478",Belmont,MA,02478,US,6174849873,"",EST,"",Active
Starbucks,Coffee & Tea,42.3955956,-71.1222229,Davis Square Plz,260 Elm St,Somerville,MA,02144,US,6176234497,"",EST,"",Active
RF O'Sullivans & Son,Burgers,42.3830223083496,-71.1124496459961,282 Beacon St,"Somerville, MA 02143",Somerville,MA,02143,US,6174919638,"",EST,"",Active
"Maureen E Norman, DO",Osteopathic Physicians,42.4184265,-71.1576157,50 Mill St,Arlington Center,Arlington,MA,02476,US,7816487707,"",EST,"",Active
Natural Nails and Spa,Nail Salons,42.4172134399414,-71.1638793945312,882B Massachusetts Ave,Arlington Center,Arlington,MA,02476,US,7817772038,"",EST,"",Active
Harvard Faculty Club,Venues & Event Spaces,42.3732469983148,-71.1144089142329,20 Quincy St,Harvard Square,Cambridge,MA,02138,US,6174955758,"",EST,"",Active
Bocelli,Italian,42.4053891,-71.1078459,374 Main St,"Medford, MA 02155",Medford,MA,02155,US,7813967070,"",EST,"",Active
Arlington Dental Care,General Dentistry,42.411339,-71.147865,347 Massachusetts Ave,East Arlington,Arlington,MA,02474,US,7816437050,"",EST,"",Active
Paddy's Lunch,Pubs,42.3859481811523,-71.1311569213867,260 Walden St,"Cambridge, MA 02138",Cambridge,MA,02138,US,6175478739,"",EST,"",Active
Zaika Indian Bistro,Indian,42.4813374,-71.1509048,442 Main St,"Woburn, MA 01801",Woburn,MA,01801,US,7819339090,"",EST,"",Active
The Elephant Walk,French,42.39182,-71.1227,2067 Massachusetts Ave,Porter Square,Cambridge,MA,02140,US,6174926900,"",EST,"",Active
Rincón Mexicano,Mexican,42.387728,-71.08277,99 Broadway,"Somerville, MA 02145",Somerville,MA,02145,US,6177761200,"",EST,"",Active
Floral Art Designs,Florists,42.423244,-71.174019,1165R Massachussetts Ave,Arlington Heights,Arlington,MA,02476,US,7816455900,"",EST,"",Active
Clover,Coffee & Tea,42.372464,-71.118349,7 Holyoke St,Harvard Square,Cambridge,MA,02138,US,,"",EST,"",Active
The Boathouse,American (New),42.371337890625,-71.1168212890625,49 Mt Auburn St,Harvard Square,Cambridge,MA,02138,US,6173491650,"",EST,"",Active
Taco Loco Mexican Grill,Mexican,42.3863690346479,-71.0795889794827,44 Broadway,"Somerville, MA 02145",Somerville,MA,02145,US,6176253830,"",EST,"",Active
City Girl Café,Italian,42.3731002807617,-71.1003265380859,204 Hampshire St,Inman Square,Cambridge,MA,02139,US,6178642809,"",EST,"",Active
Esperia Grill,Greek,42.34893,-71.15289,344 Washington St,"Brighton, MA 02135",Brighton,MA,02135,US,6172548337,"",EST,"",Active
Shays Pub & Wine Bar,American (Traditional),42.3717754,-71.1208141,58 JFK St,Harvard Square,Cambridge,MA,02138,US,6178649161,"",EST,"",Active
Anna's Taqueria,Mexican,42.3881064355373,-71.1184253543615,822 Somerville Ave,Porter Square,Cambridge,MA,02140,US,6176618500,"",EST,"",Active
Parlor Sports,Sports Bars,42.374561,-71.101448,1 Beacon St,"Somerville, MA 02143",Somerville,MA,02143,US,6175760231,"",EST,"",Active
"HomeHarvest, Custom Edible Gardens",Do-It-Yourself Food,42.4141006,-71.1411285,23 Dartmouth St,East Arlington,Arlington,MA,02474,US,3399276764,"",EST,"",Active
Aram's Café,Cafes,42.3802670091391,-71.1739651858807,85 Trapelo Rd,"Belmont, MA 02478",Belmont,MA,02478,US,6174847354,"",EST,"",Active
Cityside Locksmith,Keys & Locksmiths,42.4146227810566,-71.1337208209015,14 Arizona Ter,East Arlington,Arlington,MA,02474,US,6178630609,"",EST,"",Active
JC's Dog Walking,Dog Walkers,42.4162902832031,-71.1567611694336,Arlington Center,"Arlington, MA",Arlington,MA,,US,3106867924,"",EST,"",Active
Pleasant Street Cemetery,Funeral Services & Cemeteries,42.415694629731206,-71.15582942962651,Near Pleasant St and Mass Ave,Arlington Center,Arlington,MA,02474,US,,"",EST,"",Active
Hanson & Tilton Collision Repair,Auto Repair,42.407959,-71.1344833,10 Sunnyside Ave,East Arlington,Arlington,MA,02474,US,7816433644,"",EST,"",Active
Seta's Cafe,Mediterranean,42.3769920566929,-71.162815907944,271 Belmont St,"Belmont, MA 02478",Belmont,MA,02478,US,6174847823,"",EST,"",Active
Arlington Dental Group,General Dentistry,42.4175911,-71.1579132,22 Mill St,Ste 202,Arlington,MA,02476,US,7816437788,"",EST,"",Active
A&B Marble & Tile Design,Interior Design,42.4211082,-71.1707535,1071 Massachusetts Ave,Arlington Center,Arlington,MA,02476,US,7816486400,"",EST,"",Active
Fiorella's Express,Italian,42.3769680910904,-71.1624900629633,263 Belmont St,"Belmont, MA 02478",Belmont,MA,02478,US,6174891361,"",EST,"",Active
Celebrity Pizza & Dairy Bar,Ice Cream & Frozen Yogurt,42.37257,-71.15617,684 Mt Auburn St,"Watertown, MA 02472",Watertown,MA,02472,US,6179240009,"",EST,"",Active
Distinctive Properties,Property Management,42.4063923954964,-71.1447244137526,34 Freeman St,East Arlington,Arlington,MA,02474,US,7819626615,"",EST,"",Active
Border Café,Tex-Mex,42.374278750456,-71.120297821449,32 Church St,Harvard Square,Cambridge,MA,02138,US,6178646100,"",EST,"",Active
Zhen Ren Chuan Martial Arts Center,Martial Arts,42.41434648633,-71.150212213397,301 Broadway,Arlington Center,Arlington,MA,02474,US,7816468660,"",EST,"",Active
Murray Muscular Therapy Associates,Massage Therapy,42.416512,-71.149719,9 Chestnut St,Arlington Center,Arlington,MA,02474,US,6176538064,"",EST,"",Active
Taipei Tokyo,Japanese,42.3971796780825,-71.1229965090752,7 Holland St,Davis Square,Somerville,MA,02144,US,6176256666,"",EST,"",Active
Keefe Funeral Homes,Funeral Services & Cemeteries,42.41648,-71.14948,5 Chestnut St,"Arlington, MA 02474",Arlington,MA,02474,US,7816485544,"",EST,"",Active
My Wonderful Dog,Pet Training,42.4204254150391,-71.1566619873047,"Arlington, MA 02474",,Arlington,MA,02474,US,2073292925,"",EST,"",Active
Yak Academy,Preschools,42.4137007445097,-71.1488798260689,284 Broadway,Arlington Center,Arlington,MA,02474,US,7814792547,"",EST,"",Active
Pini's Pizzeria,Italian,42.3977512009668,-71.1050237626584,511 Broadway,"Somerville, MA 02145",Somerville,MA,02145,US,6176288668,"",EST,"",Active
"Linda Kang, LMT",Massage Therapy,42.4119606,-71.148819,366 Massachusetts Ave,Ste 303,Arlington,MA,02474,US,7812818568,"",EST,"",Active
"Robert Grossman, DMD",General Dentistry,42.4115409851074,-71.1486740112305,358 Massachusetts Ave,East Arlington,Arlington,MA,02474,US,7816430910,"",EST,"",Active
Mt Pleasant Cemetery,Funeral Services & Cemeteries,42.4167786,-71.1480713,70 Medford St,"Arlington, MA 02474",Arlington,MA,02474,US,7813163277,"",EST,"",Active
Philips Electric,Electricians,42.4112663,-71.1484146,350 Massachusetts Ave,Ste 111,Arlington,MA,02474,US,6178885434,"",EST,"",Active
Trina's Starlite Lounge,Lounges,42.374619071059,-71.101530844105,3 Beacon St,"Somerville, MA 02143",Somerville,MA,02143,US,6175760006,"",EST,"",Active
Nappi's Restaurant,Italian,42.4219787,-71.094927,370 Salem St,"Medford, MA 02155",Medford,MA,02155,US,7813917900,"",EST,"",Active
Bom Cafe,Brazilian,42.3730988055468,-71.0955883562565,1093 Cambridge St,Inman Square,Cambridge,MA,02139,US,6178640395,"",EST,"",Active
CVS/pharmacy,Photography Stores & Services,42.414463,-71.1502686,319 Broadway,Arlington Center,Arlington,MA,02474,US,7816487019,"",EST,"",Active
Bryn Durham Massage Therapy,Reflexology,42.42099,-71.163269,71 Grove St,Arlington Center,Arlington,MA,02474,US,7817771928,"",EST,"",Active
Mark Allen Electric,Electricians,42.398758,-71.144289,East Arlington,"Arlington, MA 02474",Arlington,MA,02474,US,6178526056,"",EST,"",Active
Cody Floral Designs,Florists,42.420536,-71.165642,26 Dudley St,Arlington Center,Arlington,MA,02476,US,,"",EST,"",Active
Grey-Patti Sunoco Service,Auto Repair,42.4185905,-71.16716,960 Massachusetts Avenue,Arlington Center,Arlington,MA,02476,US,7816430449,"",EST,"",Active
Craigie On Main,American (New),42.3634817952265,-71.0986128859795,853 Main St,"Cambridge, MA 02139",Cambridge,MA,02139,US,6174975511,"",EST,"",Active
Chris Hartford Hypnosis,Hypnosis/Hypnotherapy,42.4051133529683,-71.1418170957622,180 Massachusetts Ave,Ste 303,Arlington,MA,02474,US,3397070251,"",EST,"",Active
OggiGourmet,Pizza,42.3729897,-71.1182175,1350 Massachusetts Ave,Harvard Square,Cambridge,MA,02138,US,6174926444,"",EST,"",Active
Mix-It Restaurant - Sushi Bar,Sushi Bars,42.3823901,-71.1199058,1678 Massachusetts Ave,Porter Square,Cambridge,MA,02138,US,6175470212,"",EST,"",Active
"Cambridge, 1.",Pizza,42.3745231628418,-71.1200332641602,27 Church St,Harvard Square,Cambridge,MA,02138,US,6175761111,"",EST,"",Active
Lesley Ellis School,Elementary Schools,42.410366,-71.145355,41 Foster St,East Arlington,Arlington,MA,02474,US,7816415987,"",EST,"",Active
Dramatically Incorrect Theater Group,Performing Arts,42.410366,-71.145355,41 Foster St,East Arlington,Arlington,MA,02474,US,9782354580,"",EST,"",Active
Anthony Mignanelli Plumbing & Heating,Plumbing,42.4122000485659,-71.1439425498247,13 Rawson Rd,East Arlington,Arlington,MA,02474,US,6178232270,"",EST,"",Active
Journeyman,American (New),42.380094788494,-71.094471429088,9 Sanborn Ct,"Somerville, MA 02143",Somerville,MA,02143,US,6177182333,"",EST,"",Active
Comella's Restaurant,Italian,42.3971214,-71.175293,43 Leonard St,"Belmont, MA 02478",Belmont,MA,02478,US,6174897777,"",EST,"",Active
China Sky,Chinese,42.452232,-71.136101,27 Converse Pl,"Winchester, MA 01890",Winchester,MA,01890,US,7817296899,"",EST,"",Active
Massage Envy,Massage,42.4244753,-71.1849667,1398 Massachusetts Ave.,Arlington Heights,Arlington,MA,02476,US,7816413689,"",EST,"",Active
Chipotle Mexican Grill,Mexican,42.395771,-71.1224289,270-276 Elm St,Davis Square,Somerville,MA,02144,US,6176231759,"",EST,"",Active
Wasabi at Porter,Sushi Bars,42.3913002,-71.1234283,2088 Massachusetts Ave,Porter Square,Cambridge,MA,02140,US,6179455001,"",EST,"",Active
The Breakfast Club,Diners,42.363162,-71.133544,270 Western Ave,Allston/Brighton,Allston,MA,02134,US,6177831212,"",EST,"",Active
Fischer's Automotive,Auto Repair,42.4118881,-71.1499786,20 Pond Lane,East Arlington,Arlington,MA,02474,US,7816411115,"",EST,"",Active
Santouka,Ramen,42.37218,-71.11605,1 Bow St,Harvard Square,Cambridge,MA,02138,US,6179451460,"",EST,"",Active
Arlington Self Storage,Truck Rental,42.421692,-71.169571,12 Brattle Ct,Arlington Center,Arlington,MA,02476,US,7816486655,"",EST,"",Active
Kathy's Kat Kare,Pet Boarding/Pet Sitting,42.4153925,-71.1564729,Arlington Center,"Arlington, MA",Arlington,MA,,US,7816434380,"",EST,"",Active
Housing Corporation of Arlington,Real Estate Services,42.415127,-71.15683,20 Academy St,Ste G11,Arlington,MA,02476,US,7813163429,"",EST,"",Active
Sage Chiropractic,Chiropractors,42.4160805,-71.1574402,742 Massachusetts Ave,Arlington Center,Arlington,MA,02476,US,7812574111,"",EST,"",Active
Mr Crêpe,Creperies,42.3965857093855,-71.1228006527435,51 Davis Sq,Davis Square,Somerville,MA,02144,US,6176230661,"",EST,"",Active
"Coleman Julia H, MD",Doctors,42.4165418744087,-71.1553285270929,7 Court St,Arlington Center,Arlington,MA,02474,US,7816466500,"",EST,"",Active
Susan Bartolini Photography,Session Photography,42.4159900099039,-71.1542543023825,661 Massachusetts Ave,Ste 2,Arlington,MA,02476,US,,"",EST,"",Active
First Baptist Church of Arlington,Churches,42.4168625,-71.1598969,819 Massachusetts Ave,Arlington Center,Arlington,MA,02476,US,7816433024,"",EST,"",Active
Seamus McGrath - Arlington Realtor,Real Estate Agents,42.4157639,-71.1533356,637 Massachusetts Ave,Arlington Center,Arlington,MA,02474,US,5082830239,"",EST,"",Active
Fitzsimmons Law Office,Real Estate Law,42.4157486,-71.1532822,635 Massachusetts Ave,Ste R,Arlington,MA,02476,US,7816412300,"",EST,"",Active
"Bush Andrew H, MD",Psychiatrists,42.4130707,-71.1555481,94 Pleasant St,Arlington Center,Arlington,MA,02476,US,7816430008,"",EST,"",Active
"Barbara Lawnicki, DMD, PC",General Dentistry,42.4208944290876,-71.170969158411,1068 Masssachusetts Ave,Arlington Center,Arlington,MA,02476,US,7816466788,"",EST,"",Active
"Donna Katcher, MD",Internal Medicine,42.4175911,-71.1579132,22 Mill St,Arlington Center,Arlington,MA,02476,US,7816462848,"",EST,"",Active
A Place To Grow,Elementary Schools,42.412216,-71.156982,118 Pleasant St,Arlington Center,Arlington,MA,02476,US,7816467689,"",EST,"",Active
Denise's Homemade Ice Cream,Ice Cream & Frozen Yogurt,42.414943,-71.1513914,451 Massachusetts Ave,Arlington Center,Arlington,MA,02474,US,7814833990,"",EST,"",Active
Lopisi Joseph A Law Office of,Lawyers,42.416615,-71.161568,846 Massachusetts Avenue,Arlington Center,Arlington,MA,02476,US,7816436200,"",EST,"",Active
InterioReview,Professional Services,42.4149513,-71.1505737,13 A Medford St,Ste 7,Arlington,MA,02474,US,8668999606,"",EST,"",Active
Arlington Tire,Tires,42.4214668273926,-71.1725006103516,1100 Massachusetts Ave,"Arlington, MA 02476",Arlington,MA,02476,US,7816467500,"",EST,"",Active
Lotus Xpress,Asian Fusion,42.3889093,-71.0859656239252,167 Broadway,"Somerville, MA 02145",Somerville,MA,02145,US,6176295909,"",EST,"",Active
Ittyo Restaurant,Japanese,42.38729,-71.11839,1815 Massachusetts Ave,Porter Square,Cambridge,MA,02140,US,6173545944,"",EST,"",Active
