Brand*,Store id,Name,Lat*,Lng*,Address1,Address2,City,State,Zip code,Country,Phone number,Fax number,Store hours,Time zone,Dma Code,Status*
The Coast Cafe,"",The Coast Cafe,42.3629832,-71.1116149,233 River St,"",Cambridge,MA,02139,US,6173547644,"","",EST,"",Active
Atwood's Tavern,"",Atwood's Tavern,42.3727493,-71.0914536,877 Cambridge St,"",Cambridge,MA,02141,US,6178642792,"","",EST,"",Active
Muqueca Restaurant,"",Muqueca Restaurant,42.372638,-71.093872,1008 Cambridge St,"",Cambridge,MA,02139,US,6173543296,"","",EST,"",Active
Tupelo,"",Tupelo,42.3733482,-71.0971909,1193 Cambridge St,"",Cambridge,MA,02139,US,6178680004,"","",EST,"",Active
Ten Tables,"",Ten Tables,42.3793334960938,-71.1274337768555,5 Craigie Cir,"",Cambridge,MA,02138,US,6175765444,"","",EST,"",Active
Basta Pasta Trattoria,"",Basta Pasta Trattoria,42.3646317,-71.1132278,319 Western Ave,"",Cambridge,MA,02139,US,6175766672,"","",EST,"",Active
Armando's Pizza & Subs,"",Armando's Pizza & Subs,42.3823437094688,-71.1312181502581,163 Huron Ave,"",Cambridge,MA,02138,US,6173548275,"","",EST,"",Active
Helmand Restaurant,"",Helmand Restaurant,42.36649,-71.07801,143 1st St,"",Cambridge,MA,02142,US,6174924646,"","",EST,"",Active
Russell House Tavern,"",Russell House Tavern,42.373251,-71.119303,14 JFK St,"",Cambridge,MA,02138,US,6175003055,"","",EST,"",Active
Emma's Pizza,"",Emma's Pizza,42.3665216,-71.0920383,40 Hampshire St,"",Cambridge,MA,02139,US,6178648534,"","",EST,"",Active
East Coast Grill,"",East Coast Grill,42.373574173487,-71.098581340228,1271 Cambridge St,"",Cambridge,MA,02139,US,6174916568,"","",EST,"",Active
Clover,"",Clover,42.3627095,-71.0872718,5 Cambridge Ctr,"",Cambridge,MA,02142,US,,"","",EST,"",Active
Boutique Fabulous,"",Boutique Fabulous,42.373603,-71.0994931,1309 Cambridge St,"",Cambridge,MA,02139,US,6178640656,"","",EST,"",Active
T.W. Food,"",T.W. Food,42.38371,-71.1343799,377 Walden St,"",Cambridge,MA,02138,US,6178644745,"","",EST,"",Active
All Star Sandwich Bar,"",All Star Sandwich Bar,42.373506893888,-71.098204139262,1245 Cambridge St,"",Cambridge,MA,02139,US,6178683065,"","",EST,"",Active
River Gods,"",River Gods,42.3640347,-71.1087176,125 River St,"",Cambridge,MA,02139,US,6175761881,"","",EST,"",Active
Green Street,"",Green Street,42.364521,-71.104195,280 Green St,"",Cambridge,MA,02139,US,6178761655,"","",EST,"",Active
Toad,"",Toad,42.3889043927193,-71.1197222024202,1912 Massachusetts Ave,"",Cambridge,MA,02140,US,6174974950,"","",EST,"",Active
Study,"",Study,42.3633519091773,-71.0880341318771,73 Ames St,"",Cambridge,MA,02142,US,6173740700,"","",EST,"",Active
OTTO,"",OTTO,42.3741824179888,-71.1189034581184,1432 Massachusetts Ave,"",Cambridge,MA,02138,US,6174993352,"","",EST,"",Active
Bondir Cambridge,"",Bondir Cambridge,42.3682904,-71.0977689,279A Broadway,"",Cambridge,MA,02139,US,6176610009,"","",EST,"",Active
JP Licks,"",JP Licks,42.3728905,-71.1175079,1312 Massachusetts Ave,"",Cambridge,MA,02138,US,6174921001,"","",EST,"",Active
Crema Cafe,"",Crema Cafe,42.373415,-71.120771,27 Brattle St,"",Cambridge,MA,02138,US,6178762700,"","",EST,"",Active
Lizard Lounge,"",Lizard Lounge,42.3820838928223,-71.1192016601562,1667 Massachusetts Ave,"",Cambridge,MA,02138,US,6175470759,"","",EST,"",Active
West Bridge,"",West Bridge,42.3665695,-71.0901871,1 Kendall Sq,"",Cambridge,MA,02139,US,6179450221,"","",EST,"",Active
Veggie Galaxy,"",Veggie Galaxy,42.3636681909004,-71.101134969724,450 Massachusetts Ave,"",Cambridge,MA,02139,US,6174971513,"","",EST,"",Active
Toscano,"",Toscano,42.3742954075566,-71.1219486864798,52 Brattle St,"",Cambridge,MA,02138,US,6173545250,"","",EST,"",Active
Park Restaurant & Bar,"",Park Restaurant & Bar,42.3718681,-71.1208725,59 JFK St,"",Cambridge,MA,02138,US,6174919851,"","",EST,"",Active
Harvard Faculty Club,"",Harvard Faculty Club,42.3732469983148,-71.1144089142329,20 Quincy St,"",Cambridge,MA,02138,US,6174955758,"","",EST,"",Active
The Boathouse,"",The Boathouse,42.371337890625,-71.1168212890625,49 Mt Auburn St,"",Cambridge,MA,02138,US,6173491650,"","",EST,"",Active
Petsi Pies,"",Petsi Pies,42.3689575195312,-71.1137161254883,31 Putnam Ave,"",Cambridge,MA,02139,US,6174990801,"","",EST,"",Active
The Village Kitchen,"",The Village Kitchen,42.38146,-71.13848,359 Huron Ave,"",Cambridge,MA,02138,US,6174913133,"","",EST,"",Active
The Plough & Stars,"",The Plough & Stars,42.3683197,-71.1086916,912 Massachusetts Ave,"",Cambridge,MA,02139,US,6175760032,"","",EST,"",Active
Puritan & Company,"",Puritan & Company,42.3731070676765,-71.0967491705349,Inman Square,"",Cambridge,MA,02139,US,6176156195,"","",EST,"",Active
McCabe's on Mass,"",McCabe's on Mass,42.3909052,-71.1225779,2046 Massachusetts Ave,"",Cambridge,MA,02140,US,6179457115,"","",EST,"",Active
Newtowne Grille,"",Newtowne Grille,42.3897728,-71.1203033,1945 Massachusetts Ave,"",Cambridge,MA,02140,US,6176610706,"","",EST,"",Active
Cafe Sushi,"",Cafe Sushi,42.3707199,-71.1132889,1105 Massachusetts Ave,"",Cambridge,MA,02138,US,6174920434,"","",EST,"",Active
Sarah's Market & Cafe,"",Sarah's Market & Cafe,42.38227804232,-71.130977064721,200 Concord Ave,"",Cambridge,MA,02138,US,6178765999,"","",EST,"",Active
Izzy's Restaurant & Sub Shop,"",Izzy's Restaurant & Sub Shop,42.3662872314453,-71.0955657958984,169 Harvard St,"",Cambridge,MA,02139,US,6176613910,"","",EST,"",Active
Darwin's Ltd,"",Darwin's Ltd,42.374,-71.12499,148 Mt Auburn St,"",Cambridge,MA,02138,US,6173545233,"","",EST,"",Active
Newtowne Variety,"",Newtowne Variety,42.3637733459473,-71.0968475341797,93 Windsor St,"",Cambridge,MA,02139,US,6178685112,"","",EST,"",Active
Court House Seafood Restaurant,"",Court House Seafood Restaurant,42.37153,-71.08458,498 Cambridge St,"",Cambridge,MA,02141,US,6174911213,"","",EST,"",Active
Tealuxe,"",Tealuxe,42.376794,-71.127636,0 Brattle St,"",Cambridge,MA,02138,US,6174410077,"","",EST,"",Active
Rod Dee Thai Cuisine,"",Rod Dee Thai Cuisine,42.3889043927193,-71.1197222024202,1906 Massachusetts Ave,"",Cambridge,MA,02140,US,6173749252,"","",EST,"",Active
Greek Corner Restaurant,"",Greek Corner Restaurant,42.3963585,-71.1295624,2366 Massachusetts Ave,"",Cambridge,MA,02140,US,6176615655,"","",EST,"",Active
Voltage Coffee & Art,"",Voltage Coffee & Art,42.364367276425,-71.0832417399,295 3rd St,"",Cambridge,MA,02142,US,6177143974,"","",EST,"",Active
Clover,"",Clover,42.372464,-71.118349,7 Holyoke St,"",Cambridge,MA,02138,US,,"","",EST,"",Active
Ames Street Deli,"",Ames Street Deli,42.363038874263,-71.0882796589529,73 Ames St,"",Cambridge,MA,02142,US,6173740701,"","",EST,"",Active
The Cellar,"",The Cellar,42.36947,-71.1109199,991 Massachusetts Ave,"",Cambridge,MA,02138,US,6178762580,"","",EST,"",Active
Punjabi Dhaba,"",Punjabi Dhaba,42.3738861083984,-71.1007995605469,225 Hampshire St,"",Cambridge,MA,02139,US,6175478272,"","",EST,"",Active
Olecito,"",Olecito,42.3740382492542,-71.100494787097,12 Springfield St,"",Cambridge,MA,02139,US,6178761374,"","",EST,"",Active
Santouka,"",Santouka,42.37218,-71.11605,1 Bow St,"",Cambridge,MA,02138,US,6179451460,"","",EST,"",Active
Oberon,"",Oberon,42.370948,-71.1143491,2 Arrow St,"",Cambridge,MA,02138,US,6175478300,"","",EST,"",Active
Shays Pub & Wine Bar,"",Shays Pub & Wine Bar,42.3717754,-71.1208141,58 JFK St,"",Cambridge,MA,02138,US,6178649161,"","",EST,"",Active
Rangzen Tibetan Restaurant,"",Rangzen Tibetan Restaurant,42.3640312,-71.1032374,24 Pearl St,"",Cambridge,MA,02139,US,6173548881,"","",EST,"",Active
Area Four,"",Area Four,42.3630882820482,-71.0924215508739,500 Technology Sq,"",Cambridge,MA,02139,US,6177584444,"","",EST,"",Active
L'Impasto,"",L'Impasto,42.3944337,-71.1267771,2263 Massachusetts Ave,"",Cambridge,MA,02140,US,6174911901,"","",EST,"",Active
House of Chang,"",House of Chang,42.3836097121239,-71.1336797475815,282 Concord Ave,"",Cambridge,MA,02138,US,6175479888,"","",EST,"",Active
OggiGourmet,"",OggiGourmet,42.3729897,-71.1182175,1350 Massachusetts Ave,"",Cambridge,MA,02138,US,6174926444,"","",EST,"",Active
The Harvard Bridge,"",The Harvard Bridge,42.3534738755083,-71.0907571937319,Massachusetts Ave Bridge,"",Cambridge,MA,02139,US,,"","",EST,"",Active
Fiorella's Express,"",Fiorella's Express,42.3974415406694,-71.1298887226868,2401 Massachusetts Ave,"",Cambridge,MA,02140,US,6178689900,"","",EST,"",Active
2nd Street Cafe,"",2nd Street Cafe,42.36853,-71.0793,89 2nd St,"",Cambridge,MA,02141,US,6176611311,"","",EST,"",Active
Bagelsaurus,"",Bagelsaurus,42.3860588,-71.1194534,1796 Massachusetts Ave,"",Cambridge,MA,02140,US,8572856103,"","",EST,"",Active
Cambridge Deli & Grill,"",Cambridge Deli & Grill,42.3641281,-71.1077576,90 River St,"",Cambridge,MA,02139,US,6178686740,"","",EST,"",Active
West Side Lounge,"",West Side Lounge,42.3824462890625,-71.1200790405273,1680 Massachusetts Ave,"",Cambridge,MA,02138,US,6174415566,"","",EST,"",Active
Border Café,"",Border Café,42.374278750456,-71.120297821449,32 Church St,"",Cambridge,MA,02138,US,6178646100,"","",EST,"",Active
Cambridge Common,"",Cambridge Common,42.382133040905,-71.119461647643,1667 Massachusetts Ave,"",Cambridge,MA,02138,US,6175471228,"","",EST,"",Active
SOFRA Bakery & Cafe,"",SOFRA Bakery & Cafe,42.375666,-71.150408,1 Belmont St,"",Cambridge,MA,02138,US,6176613161,"","",EST,"",Active
Andala Coffee House,"",Andala Coffee House,42.364874,-71.105764,286 Franklin St,"",Cambridge,MA,02139,US,6179452212,"","",EST,"",Active
Boston Tea Stop,"",Boston Tea Stop,42.3718298384495,-71.1206388473511,54 JFK St,"",Cambridge,MA,02138,US,6179450017,"","",EST,"",Active
Angelo's Pizza,"",Angelo's Pizza,42.37294,-71.11071,444 Broadway,"",Cambridge,MA,02138,US,6176618049,"","",EST,"",Active
"Cambridge, 1.","","Cambridge, 1.",42.3745231628418,-71.1200332641602,27 Church St,"",Cambridge,MA,02138,US,6175761111,"","",EST,"",Active
Cafe Barada,"",Cafe Barada,42.3947982788086,-71.1268615722656,2269 Massachusetts Ave,"",Cambridge,MA,02140,US,6173544446,"","",EST,"",Active
Brookline Lunch,"",Brookline Lunch,42.3637641,-71.1017365,9 Brookline St,"",Cambridge,MA,02139,US,6173542983,"","",EST,"",Active
The Muddy Charles Pub at MIT,"",The Muddy Charles Pub at MIT,42.3591766,-71.0877228,142 Memorial Dr,"",Cambridge,MA,02139,US,6172532086,"","",EST,"",Active
Central Kitchen,"",Central Kitchen,42.3648499,-71.10248,567 Massachusetts Ave,"",Cambridge,MA,02139,US,6174915599,"","",EST,"",Active
Shabu & Mein,"",Shabu & Mein,42.366246432066,-71.077893152833,148 1st St,"",Cambridge,MA,02142,US,6175777888,"","",EST,"",Active
Kolbeh of Kabob,"",Kolbeh of Kabob,42.374027,-71.104652,1500 Cambridge St,"",Cambridge,MA,02139,US,6178769400,"","",EST,"",Active
The Shops at Porter,"",The Shops at Porter,42.3871916506057,-71.1187779364014,University Hall,"",Cambridge,MA,02140,US,,"","",EST,"",Active
Hana Sushi,"",Hana Sushi,42.3966599,-71.1296463,2372 Massachusetts Ave,"",Cambridge,MA,02140,US,6178682121,"","",EST,"",Active
Inman Square,"",Inman Square,42.3737183,-71.1007996,Cambridge & Hampshire St,"",Cambridge,MA,02139,US,,"","",EST,"",Active
The Maharaja,"",The Maharaja,42.372142791748,-71.1209106445312,57 JFK St,"",Cambridge,MA,02138,US,6175472757,"","",EST,"",Active
Yume Wo Katare,"",Yume Wo Katare,42.38939,-71.11976,1923 Massachusetts Ave,"",Cambridge,MA,02140,US,6177144008,"","",EST,"",Active
Paris Baguette,"",Paris Baguette,42.3650219,-71.1027564,581 Massachusetts Ave,"",Cambridge,MA,02139,US,6177143456,"","",EST,"",Active
Bon Me,"",Bon Me,42.3665695,-71.0901871,1 Kendall Sq,"",Cambridge,MA,02139,US,6179452615,"","",EST,"",Active
Orinoco,"",Orinoco,42.3718710243702,-71.1206515878439,56 Jfk St,"",Cambridge,MA,02138,US,6173546900,"","",EST,"",Active
The Blue Room,"",The Blue Room,42.36657,-71.09019,Hampshire and Portland,"",Cambridge,MA,02139,US,6174949034,"","",EST,"",Active
All Star Pizza Bar,"",All Star Pizza Bar,42.373222,-71.098045,1238 Cambridge St,"",Cambridge,MA,02139,US,6175470836,"","",EST,"",Active
Henrietta's Table,"",Henrietta's Table,42.372255758365,-71.123138125143,1 Bennett St,"",Cambridge,MA,02138,US,6176615005,"","",EST,"",Active
The Similans,"",The Similans,42.36631,-71.07805,145 1st St,"",Cambridge,MA,02142,US,6174916999,"","",EST,"",Active
Harvest of India,"",Harvest of India,42.3695202,-71.1113857,1001 Massachusetts Ave,"",Cambridge,MA,02138,US,6174414034,"","",EST,"",Active
The Field,"",The Field,42.3657738363216,-71.1035370826721,20 Prospect St,"",Cambridge,MA,02139,US,6173547345,"","",EST,"",Active
Temple Bar,"",Temple Bar,42.38273,-71.12006,1688 Massachusetts Ave,"",Cambridge,MA,02138,US,6175475055,"","",EST,"",Active
Ole,"",Ole,42.3740653991699,-71.1001586914062,11 Springfield St,"",Cambridge,MA,02139,US,6174924495,"","",EST,"",Active
The People's Republik,"",The People's Republik,42.36759,-71.10799,876-878 Massachusetts Ave,"",Cambridge,MA,02139,US,6174916969,"","",EST,"",Active
Al's Harvard Square Cafe,"",Al's Harvard Square Cafe,42.3729897,-71.1182175,1350 Massachusetts Ave,"",Cambridge,MA,02138,US,6174419100,"","",EST,"",Active
Royal Pastry Shop,"",Royal Pastry Shop,42.371955871582,-71.0892181396484,738 Cambridge St,"",Cambridge,MA,02141,US,6175472053,"","",EST,"",Active
Mr. Bartley's Gourmet Burgers,"",Mr. Bartley's Gourmet Burgers,42.3725623637438,-71.1161836981773,1246 Massachusetts Ave,"",Cambridge,MA,02138,US,6173546559,"","",EST,"",Active
Viale,"",Viale,42.3640620675438,-71.101846916568,502 Massachusetts Ave,"",Cambridge,MA,02139,US,6175761900,"","",EST,"",Active
Clover,"",Clover,42.3730270564556,-71.0950277745724,1075 Cambridge St,"",Cambridge,MA,02141,US,,"","",EST,"",Active
Baraka Café,"",Baraka Café,42.3628997802734,-71.104362487793,80 1/2 Pearl St,"",Cambridge,MA,02139,US,6178683951,"","",EST,"",Active
Chutney's,"",Chutney's,42.3727021336872,-71.1198749914017,36 John F Kennedy St,"",Cambridge,MA,02138,US,6174912545,"","",EST,"",Active
O2 Vegan Cafe,"",O2 Vegan Cafe,42.3695152,-71.1114091,1001 Massachusetts Ave,"",Cambridge,MA,02138,US,6174922233,"","",EST,"",Active
State Park,"",State Park,42.3661738054722,-71.0909571161469,1 Kendall Sq,"",Cambridge,MA,02139,US,6178484355,"","",EST,"",Active
Cantab Lounge,"",Cantab Lounge,42.366209551692,-71.1051712185144,738 Massachusetts Ave,"",Cambridge,MA,02139,US,6173542685,"","",EST,"",Active
Ma Magoo's Pizza & Sub Shop,"",Ma Magoo's Pizza & Sub Shop,42.387989,-71.1424332,6 Concord Ln,"",Cambridge,MA,02138,US,6173549139,"","",EST,"",Active
The Abbey,"",The Abbey,42.3851057658005,-71.1191113498644,1755 Massachusetts Ave,"",Cambridge,MA,02140,US,6177144944,"","",EST,"",Active
ZuZu,"",ZuZu,42.3638257,-71.1013883,474 Massachusetts Ave,"",Cambridge,MA,02139,US,6178643278,"","",EST,"",Active
Cafe Zing,"",Cafe Zing,42.389626783162,-71.11900032752,25 White St,"",Cambridge,MA,02140,US,6174979464,"","",EST,"",Active
Gran Gusto,"",Gran Gusto,42.3884888,-71.1323776,90 Sherman St,"",Cambridge,MA,02140,US,6174410400,"","",EST,"",Active
Thelonious Monkfish,"",Thelonious Monkfish,42.3642186820507,-71.101842597127,524 Massachusetts Ave,"",Cambridge,MA,02139,US,6174412116,"","",EST,"",Active
The Squeaky Beaker,"",The Squeaky Beaker,42.3647350072861,-71.081815212965,675 W Kendall St,"",Cambridge,MA,02142,US,6176790108,"","",EST,"",Active
Christopher's,"",Christopher's,42.3890113830566,-71.1200332641602,1920 Massachusetts Ave,"",Cambridge,MA,02140,US,6178769180,"","",EST,"",Active
Beat Brasserie,"",Beat Brasserie,42.3733622,-71.1200863,13 Brattle St,"",Cambridge,MA,02138,US,6174990001,"","",EST,"",Active
Rialto,"",Rialto,42.372352526974,-71.122651735583,1 Bennett St,"",Cambridge,MA,02138,US,6176615050,"","",EST,"",Active
The Friendly Toast,"",The Friendly Toast,42.366208565125,-71.090607184369,1 Kendall Sq,"",Cambridge,MA,02139,US,6176211200,"","",EST,"",Active
BonChon,"",BonChon,42.372123,-71.120903,57 John F Kennedy St,"",Cambridge,MA,02138,US,6178680981,"","",EST,"",Active
Dado Tea,"",Dado Tea,42.369155,-71.1098279,955 Massachusetts Ave,"",Cambridge,MA,02139,US,6174979061,"","",EST,"",Active
Petsi Pies,"",Petsi Pies,42.3715105,-71.0835507,594 Cambridge St,"",Cambridge,MA,02141,US,6179455278,"","",EST,"",Active
Charlie's Kitchen,"",Charlie's Kitchen,42.3724547,-71.1214953,10 Eliot St,"",Cambridge,MA,02138,US,6174929646,"","",EST,"",Active
Dumpling House,"",Dumpling House,42.3688024,-71.1097798,950 Massachusetts Ave,"",Cambridge,MA,02139,US,6176618066,"","",EST,"",Active
EVOO Restaurant,"",EVOO Restaurant,42.363386344385,-71.083253942383,Kendall Square,"",Cambridge,MA,02142,US,6176613866,"","",EST,"",Active
Moody's Falafel Palace,"",Moody's Falafel Palace,42.365425260234,-71.105748976123,25 Central Sq,"",Cambridge,MA,02139,US,6178640827,"","",EST,"",Active
Asmara Restaurant,"",Asmara Restaurant,42.36645,-71.10516,739 Massachusetts Ave,"",Cambridge,MA,02139,US,6178647447,"","",EST,"",Active
Genki Ya,"",Genki Ya,42.3892615851878,-71.1435215355563,231 Alewife Brook Pkwy,"",Cambridge,MA,02138,US,6176618200,"","",EST,"",Active
Flat Patties,"",Flat Patties,42.373539,-71.1209183,33 Brattle St,"",Cambridge,MA,02138,US,6178716871,"","",EST,"",Active
Tampopo,"",Tampopo,42.387291,-71.1183929,1815 Massachusetts Ave,"",Cambridge,MA,02140,US,6178685457,"","",EST,"",Active
Sweet Touch Cafe,"",Sweet Touch Cafe,42.3711399,-71.07995,241 Cambridge St,"",Cambridge,MA,02141,US,6174914119,"","",EST,"",Active
Catalyst Restaurant,"",Catalyst Restaurant,42.363059260802,-71.0916777587909,300 Technology Sq,"",Cambridge,MA,02139,US,6175763000,"","",EST,"",Active
Brick & Mortar,"",Brick & Mortar,42.3648491,-71.102478,567 Massachusetts Ave,"",Cambridge,MA,02139,US,6174910016,"","",EST,"",Active
Lone Star Taco Bar,"",Lone Star Taco Bar,42.37212,-71.08687,635 Cambridge St,"",Cambridge,MA,02141,US,8572856179,"","",EST,"",Active
Lanes & Games,"",Lanes & Games,42.3992805,-71.1486969,195 Concord Tpke,"",Cambridge,MA,02140,US,6178765533,"","",EST,"",Active
Memorial Hall,"",Memorial Hall,42.375996659073,-71.115127405266,45 Quincy St,"",Cambridge,MA,02138,US,6174964595,"","",EST,"",Active
Aceituna Grill,"",Aceituna Grill,42.3644299060106,-71.0818715393543,605 W Kendall St,"",Cambridge,MA,02142,US,6172520707,"","",EST,"",Active
Algiers Coffee House,"",Algiers Coffee House,42.373803,-71.121177,40 Brattle St,"",Cambridge,MA,02138,US,6174921557,"","",EST,"",Active
Clover,"",Clover,42.3639929461171,-71.1015986183805,496 Mass Ave,"",Cambridge,MA,02139,US,,"","",EST,"",Active
1369 Coffee House,"",1369 Coffee House,42.3738479614258,-71.1003646850586,1369 Cambridge St,"",Cambridge,MA,02139,US,6175761369,"","",EST,"",Active
Mix-It Restaurant - Sushi Bar,"",Mix-It Restaurant - Sushi Bar,42.3823901,-71.1199058,1678 Massachusetts Ave,"",Cambridge,MA,02138,US,6175470212,"","",EST,"",Active
The Middle East & Zuzu,"",The Middle East & Zuzu,42.3637902,-71.1012764,472-480 Massachusetts Ave,"",Cambridge,MA,02139,US,6178643278,"","",EST,"",Active
Lord Hobo,"",Lord Hobo,42.368763,-71.0951,92 Hampshire St,"",Cambridge,MA,02139,US,6172508454,"","",EST,"",Active
Bourbon Coffee,"",Bourbon Coffee,42.387554,-71.119012,1815 Massachusetts Ave,"",Cambridge,MA,02140,US,6178686500,"","",EST,"",Active
Danehy Park,"",Danehy Park,42.3884583,-71.1326904,99 Sherman St,"",Cambridge,MA,02238,US,,"","",EST,"",Active
The Just Crust,"",The Just Crust,42.3742294,-71.121521,49B Brattle St,"",Cambridge,MA,02138,US,6174974111,"","",EST,"",Active
The Cambridge Queen's Head,"",The Cambridge Queen's Head,42.3759409246247,-71.1156291368882,Harvard University,"",Cambridge,MA,02138,US,6174955107,"","",EST,"",Active
Miracle of Science Bar + Grill,"",Miracle of Science Bar + Grill,42.3625772892949,-71.0985866559435,321 Massachusetts Ave,"",Cambridge,MA,02139,US,6178682866,"","",EST,"",Active
Mass Ave Diner,"",Mass Ave Diner,42.368102,-71.1087902,906 Massachusetts Ave,"",Cambridge,MA,02139,US,6178645301,"","",EST,"",Active
Qing Dao Garden,"",Qing Dao Garden,42.39685,-71.12987,2382 Massachusetts Ave,"",Cambridge,MA,02138,US,6174927540,"","",EST,"",Active
Darwin's Ltd,"",Darwin's Ltd,42.374979616721,-71.109579691078,1629 Cambridge St,"",Cambridge,MA,02138,US,6174912999,"","",EST,"",Active
Dimitrios Cuisine,"",Dimitrios Cuisine,42.3574327404898,-71.1078020465196,272 Brookline St,"",Cambridge,MA,02139,US,6178763272,"","",EST,"",Active
Peet's Coffee & Tea,"",Peet's Coffee & Tea,42.3726586840441,-71.1206625334603,100 Mount Auburn Street,"",Cambridge,MA,02138,US,6174921844,"","",EST,"",Active
Desfina Restaurant,"",Desfina Restaurant,42.3675308227539,-71.0809783935547,202 3rd St,"",Cambridge,MA,02141,US,6178689098,"","",EST,"",Active
Ryles,"",Ryles,42.3732,-71.1004899,212 Hampshire St,"",Cambridge,MA,02139,US,6178769330,"","",EST,"",Active
Legal Sea Foods,"",Legal Sea Foods,42.3720188923243,-71.1234795496904,20 University Rd,"",Cambridge,MA,02138,US,6174919400,"","",EST,"",Active
Sugar & Spice,"",Sugar & Spice,42.38961,-71.11996,1933 Massachusetts Ave,"",Cambridge,MA,02140,US,6178684200,"","",EST,"",Active
Full Moon,"",Full Moon,42.3812292516232,-71.1379189789295,344 Huron Ave,"",Cambridge,MA,02138,US,6173546699,"","",EST,"",Active
Central Square,"",Central Square,42.36525,-71.10464,Central Sq,"",Cambridge,MA,02139,US,6174417707,"","",EST,"",Active
Le's Restaurant,"",Le's Restaurant,42.37274,-71.11987,36 JFK St,"",Cambridge,MA,02138,US,6178644100,"","",EST,"",Active
Anna's Taqueria,"",Anna's Taqueria,42.3881064355373,-71.1184253543615,822 Somerville Ave,"",Cambridge,MA,02140,US,6176618500,"","",EST,"",Active
Harvest,"",Harvest,42.3736842141857,-71.1220836964934,44 Brattle St,"",Cambridge,MA,02138,US,6178682255,"","",EST,"",Active
1369 Coffee House,"",1369 Coffee House,42.3666687,-71.1052933,757 Massachusetts Ave,"",Cambridge,MA,02139,US,6175764600,"","",EST,"",Active
Noir,"",Noir,42.3723605275154,-71.1219383776188,1 Bennett St,"",Cambridge,MA,02138,US,6176618010,"","",EST,"",Active
Grafton Street,"",Grafton Street,42.372401,-71.1159,1230 Massachusetts Ave,"",Cambridge,MA,02138,US,6174970400,"","",EST,"",Active
Four Burgers,"",Four Burgers,42.3660399019718,-71.1048781871796,704 Massachusetts Ave,"",Cambridge,MA,02139,US,6174415444,"","",EST,"",Active
Zoe's,"",Zoe's,42.37077,-71.11355,1105 Massachusetts Ave,"",Cambridge,MA,02138,US,6174950055,"","",EST,"",Active
Skampa,"",Skampa,42.3712348937988,-71.0833206176758,424 Cambridge St,"",Cambridge,MA,02141,US,6173540009,"","",EST,"",Active
Mary Chung Restaurant,"",Mary Chung Restaurant,42.3637238144875,-71.1009742319584,460 Massachusetts Ave,"",Cambridge,MA,02139,US,6178641991,"","",EST,"",Active
Belly Wine Bar,"",Belly Wine Bar,42.3664315853316,-71.0901874380877,One Kendall Sq,"",Cambridge,MA,02139,US,6174940968,"","",EST,"",Active
Ittyo Restaurant,"",Ittyo Restaurant,42.38729,-71.11839,1815 Massachusetts Ave,"",Cambridge,MA,02140,US,6173545944,"","",EST,"",Active
Fresh Pond,"",Fresh Pond,42.3825844377279,-71.1431968957186,200 Fresh Pond Pkwy,"",Cambridge,MA,02238,US,,"","",EST,"",Active
Sapporo Ramen,"",Sapporo Ramen,42.3870496451855,-71.1190992593765,1815 Massachusetts Ave,"",Cambridge,MA,02140,US,6178764805,"","",EST,"",Active
Harvard House Of Pizza,"",Harvard House Of Pizza,42.3832880230922,-71.1198422477928,1706 Massachusetts Ave,"",Cambridge,MA,02138,US,6178648090,"","",EST,"",Active
Grendel's Den Restaurant & Bar,"",Grendel's Den Restaurant & Bar,42.372501,-71.1209673,89 Winthrop St,"",Cambridge,MA,02138,US,6174911160,"","",EST,"",Active
Koreana,"",Koreana,42.369149,-71.101008,158 Prospect St,"",Cambridge,MA,02139,US,6175768661,"","",EST,"",Active
India Pavilion,"",India Pavilion,42.3654119,-71.1045342,17 Central Sq,"",Cambridge,MA,02139,US,6175477463,"","",EST,"",Active
Cafe Pamplona,"",Cafe Pamplona,42.3717498779297,-71.1154708862305,12 Bow St,"",Cambridge,MA,02138,US,6174920352,"","",EST,"",Active
Boston Burger Company,"",Boston Burger Company,42.3707199,-71.1132889,1105 Massachusetts Ave,"",Cambridge,MA,02138,US,8572423605,"","",EST,"",Active
Shake Shack,"",Shake Shack,42.3722616,-71.1209004,92 Winthrop St,"",Cambridge,MA,02138,US,6177588495,"","",EST,"",Active
The Half-Shell,"",The Half-Shell,42.385187,-71.119329,1760 Massachusetts Ave,"",Cambridge,MA,02140,US,6178769596,"","",EST,"",Active
North Point Park,"",North Point Park,42.3694711178541,-71.0717394948006,6 Museum Way,"",Cambridge,MA,02141,US,6175232900,"","",EST,"",Active
Casa Portugal,"",Casa Portugal,42.373116,-71.097389,1200 Cambridge St,"",Cambridge,MA,02139,US,6174918880,"","",EST,"",Active
Meadhall,"",Meadhall,42.363786693677,-71.087323725337,4 Cambridge Ctr,"",Cambridge,MA,02142,US,6177144372,"","",EST,"",Active
Tatte Bakery & Cafe,"",Tatte Bakery & Cafe,42.36679,-71.09313,205 Broadway St,"",Cambridge,MA,02139,US,6174948700,"","",EST,"",Active
Tanjore,"",Tanjore,42.372106389256,-71.12161399105,18 Eliot St,"",Cambridge,MA,02138,US,6178681900,"","",EST,"",Active
The Sinclair,"",The Sinclair,42.374157,-71.1206436,52 Church St,"",Cambridge,MA,02138,US,6175475200,"","",EST,"",Active
Commonwealth Restaurant and Market,"",Commonwealth Restaurant and Market,42.3631063,-71.0827681,11 Broad Canal Way,"",Cambridge,MA,02142,US,6179457030,"","",EST,"",Active
Pepper Sky's Thai Sensation,"",Pepper Sky's Thai Sensation,42.364188205727,-71.102893589241,20 Pearl St,"",Cambridge,MA,02139,US,6174922541,"","",EST,"",Active
Fuji At Kendall,"",Fuji At Kendall,42.3652801513672,-71.0819854736328,300 3rd St,"",Cambridge,MA,02142,US,6172520088,"","",EST,"",Active
S & S Restaurant & Deli Inc,"",S & S Restaurant & Deli Inc,42.37333,-71.09987,1334 Cambridge St,"",Cambridge,MA,02139,US,6173540777,"","",EST,"",Active
Middlesex Lounge,"",Middlesex Lounge,42.362474,-71.098468,315 Massachusetts Ave,"",Cambridge,MA,02139,US,6178686739,"","",EST,"",Active
Paddy's Lunch,"",Paddy's Lunch,42.3859481811523,-71.1311569213867,260 Walden St,"",Cambridge,MA,02138,US,6175478739,"","",EST,"",Active
Oxford Spa Cafe,"",Oxford Spa Cafe,42.3831291,-71.1160507,102 Oxford St,"",Cambridge,MA,02138,US,6176616988,"","",EST,"",Active
Daedalus Restaurant & Pub,"",Daedalus Restaurant & Pub,42.3712908462239,-71.11647605896,45 1/2 Mt. Auburn St,"",Cambridge,MA,02138,US,6173490071,"","",EST,"",Active
Amelias Trattoria,"",Amelias Trattoria,42.3649788,-71.0926971,111 Harvard St,"",Cambridge,MA,02139,US,6178687600,"","",EST,"",Active
Atasca,"",Atasca,42.36688,-71.09283,50 Hampshire St,"",Cambridge,MA,02139,US,6176216991,"","",EST,"",Active
Beantowne Coffee,"",Beantowne Coffee,42.366391823341,-71.090628522504,1 Kendall Sq,"",Cambridge,MA,02139,US,6176217900,"","",EST,"",Active
The Elephant Walk,"",The Elephant Walk,42.39182,-71.1227,2067 Massachusetts Ave,"",Cambridge,MA,02140,US,6174926900,"","",EST,"",Active
Starbucks,"",Starbucks,42.3724684123245,-71.1194061418472,36 JFK St,"",Cambridge,MA,02138,US,6174924881,"","",EST,"",Active
Portugalia,"",Portugalia,42.37232,-71.08866,723 Cambridge St,"",Cambridge,MA,02141,US,6174915373,"","",EST,"",Active
Cafe ArtScience,"",Cafe ArtScience,42.3644714355469,-71.0806274414062,650 E Kendall St,"",Cambridge,MA,02142,US,8579992193,"","",EST,"",Active
Akai Ryu Shabu & Sushi Restaurant,"",Akai Ryu Shabu & Sushi Restaurant,42.3884914901523,-71.1185810773643,822 Somerville Ave,"",Cambridge,MA,02140,US,6178680186,"","",EST,"",Active
B. Good,"",B. Good,42.372605034642,-71.119023304569,24 Dunster St,"",Cambridge,MA,02138,US,6173546500,"","",EST,"",Active
Bytes At University Park,"",Bytes At University Park,42.360912322998,-71.1013259887695,64 Sidney St,"",Cambridge,MA,02139,US,6176213513,"","",EST,"",Active
Zinneken's,"",Zinneken's,42.3712983727455,-71.1145529150963,1154 Massachusetts Ave,"",Cambridge,MA,02138,US,6178760836,"","",EST,"",Active
Loyal Nine,"",Loyal Nine,42.37192,-71.08761,660 Cambridge St,"",Cambridge,MA,02141,US,6179452576,"","",EST,"",Active
Takemura Japanese Restaurant,"",Takemura Japanese Restaurant,42.3720893859863,-71.1213912963867,18 Eliot St,"",Cambridge,MA,02138,US,6174926700,"","",EST,"",Active
BISq,"",BISq,42.3730216920376,-71.0949801653624,1071 Cambridge St,"",Cambridge,MA,02139,US,6177143693,"","",EST,"",Active
Felipe's Taqueria,"",Felipe's Taqueria,42.3733301460743,-71.1204718798399,21 Brattle St,"",Cambridge,MA,02138,US,6173549944,"","",EST,"",Active
Phoenix Landing,"",Phoenix Landing,42.3640365600586,-71.1019897460938,512 Massachusetts Ave,"",Cambridge,MA,02139,US,6175766260,"","",EST,"",Active
Boloco Harvard,"",Boloco Harvard,42.372163,-71.118239,Harvard Square,"",Cambridge,MA,02138,US,6173545838,"","",EST,"",Active
Wasabi at Porter,"",Wasabi at Porter,42.3913002,-71.1234283,2088 Massachusetts Ave,"",Cambridge,MA,02140,US,6179455001,"","",EST,"",Active
Harvard Yard,"",Harvard Yard,42.3800315856934,-71.1346969604492,Harvard University Campus,"",Cambridge,MA,02138,US,,"","",EST,"",Active
Jose's Mexican Restaurant,"",Jose's Mexican Restaurant,42.390184,-71.132848,131 Sherman St,"",Cambridge,MA,02140,US,6173540335,"","",EST,"",Active
Flame Asian Restaurant,"",Flame Asian Restaurant,42.3695099476262,-71.1113642830811,1001 Massachusetts Ave,"",Cambridge,MA,02138,US,6179450080,"","",EST,"",Active
The Table At Season To Taste,"",The Table At Season To Taste,42.3983409,-71.1310318,2447 Massachusetts Ave,"",Cambridge,MA,02140,US,6178269037,"","",EST,"",Active
Aram's No 2 Pizza & Subs,"",Aram's No 2 Pizza & Subs,42.37149,-71.08176,345 Cambridge St,"",Cambridge,MA,02141,US,6173545154,"","",EST,"",Active
Leo Carroll Jewelers,"",Leo Carroll Jewelers,42.3735087,-71.1002036,1348 Cambridge St,"",Cambridge,MA,02139,US,6178642090,"","",EST,"",Active
Tasty Burger,"",Tasty Burger,42.3726196,-71.1199722,40 JFK St,"",Cambridge,MA,02138,US,6174254444,"","",EST,"",Active
CurryThai Restaurant,"",CurryThai Restaurant,42.3719289173994,-71.0858103632927,569 Cambridge St,"",Cambridge,MA,02141,US,6178686644,"","",EST,"",Active
Tory Row,"",Tory Row,42.373581000981,-71.119619301871,3 Brattle St,"",Cambridge,MA,02138,US,6178768769,"","",EST,"",Active
Joe Sent Me,"",Joe Sent Me,42.39693,-71.12996,2388 Massachusetts Ave,"",Cambridge,MA,02140,US,6174921116,"","",EST,"",Active
Dwelltime,"",Dwelltime,42.37044,-71.10444,364 Broadway,"",Cambridge,MA,02139,US,6177145536,"","",EST,"",Active
Chipotle Mexican Grill,"",Chipotle Mexican Grill,42.3730969739447,-71.1214289895272,1 Brattle Sq,"",Cambridge,MA,02138,US,6174910677,"","",EST,"",Active
Boston iPhone Repair,"",Boston iPhone Repair,42.3719711,-71.1155167,1208 Massachusetts Ave,"",Cambridge,MA,02138,US,6175122258,"","",EST,"",Active
Gyu-Kaku Japanese BBQ,"",Gyu-Kaku Japanese BBQ,42.3721018972539,-71.1213581938705,16-18 Eliot St,"",Cambridge,MA,02138,US,8572596666,"","",EST,"",Active
Dante,"",Dante,42.3665857315063,-71.0756005346775,40 Edwin H Land Blvd,"",Cambridge,MA,02142,US,6174974200,"","",EST,"",Active
Royal East Restaurant,"",Royal East Restaurant,42.3631003,-71.0971097,792 Main St,"",Cambridge,MA,02139,US,6176611660,"","",EST,"",Active
Chocho's,"",Chocho's,42.38729,-71.11839,1815 Massachusetts Ave,"",Cambridge,MA,02140,US,6178684246,"","",EST,"",Active
MIT Stata Center,"",MIT Stata Center,42.3620702,-71.0906956,32 Vassar St,"",Cambridge,MA,02139,US,6175778812,"","",EST,"",Active
Changsho,"",Changsho,42.3835296630859,-71.1198883056641,1712 Massachusetts Ave,"",Cambridge,MA,02138,US,6175476565,"","",EST,"",Active
Tahaza Hummus Kitchen,"",Tahaza Hummus Kitchen,42.3695678710938,-71.076774597168,1 Canal Park,"",Cambridge,MA,02141,US,8572596960,"","",EST,"",Active
Za,"",Za,42.364540343707,-71.082760247546,350 3rd St,"",Cambridge,MA,02142,US,6174529292,"","",EST,"",Active
Anna's Taqueria,"",Anna's Taqueria,42.3588791,-71.0946198,MIT Stratton Student Center,"",Cambridge,MA,02139,US,6173242662,"","",EST,"",Active
The Red House,"",The Red House,42.37248,-71.1211576,98 Winthrop St,"",Cambridge,MA,02138,US,6175760605,"","",EST,"",Active
Nubar,"",Nubar,42.377186,-71.123238,16 Garden St,"",Cambridge,MA,02138,US,6172341365,"","",EST,"",Active
Weeks Footbridge,"",Weeks Footbridge,42.3690560460091,-71.117110401392,953 Memorial Dr,"",Cambridge,MA,02138,US,,"","",EST,"",Active
Shepard,"",Shepard,42.3819389,-71.120079,1 Shepard St,"",Cambridge,MA,02138,US,6177145295,"","",EST,"",Active
Primo Pizza & Roast Beef,"",Primo Pizza & Roast Beef,42.363441,-71.096855,783 Main St,"",Cambridge,MA,02139,US,6179450878,"","",EST,"",Active
9 Tastes,"",9 Tastes,42.3719825744629,-71.1203460693359,50 JFK St,"",Cambridge,MA,02138,US,6175476666,"","",EST,"",Active
Bambara Cambridge,"",Bambara Cambridge,42.3679656982422,-71.0751342773438,25 Edwin H Land Blvd,"",Cambridge,MA,02141,US,6178684444,"","",EST,"",Active
Beantown Taqueria,"",Beantown Taqueria,42.361699,-71.097339,245 Massachusetts Ave,"",Cambridge,MA,02139,US,6174418689,"","",EST,"",Active
Super Fusion Cuisine,"",Super Fusion Cuisine,42.38517,-71.1191711,1759 Massachusetts Ave,"",Cambridge,MA,02140,US,6178646299,"","",EST,"",Active
Hi-Rise Bread Company,"",Hi-Rise Bread Company,42.3825033214094,-71.1313591507896,208 Concord Ave,"",Cambridge,MA,02138,US,6178768766,"","",EST,"",Active
Sabra Grill,"",Sabra Grill,42.3720265,-71.1214771,20 Eliot St,"",Cambridge,MA,02138,US,6178685777,"","",EST,"",Active
Atomic Bean Cafe,"",Atomic Bean Cafe,42.3682635,-71.1085611,904 Massachusetts Ave,"",Cambridge,MA,02139,US,6174990972,"","",EST,"",Active
Ginger Exchange,"",Ginger Exchange,42.3735205829144,-71.0988606512547,1287 Cambridge St,"",Cambridge,MA,02139,US,6172508618,"","",EST,"",Active
Kaju Tofu House,"",Kaju Tofu House,42.372075,-71.1208551,57 John F Kennedy St,"",Cambridge,MA,02138,US,6178646868,"","",EST,"",Active
Wok N' Roll,"",Wok N' Roll,42.3888893,-71.119873,1908 Massachusetts Ave,"",Cambridge,MA,02140,US,6174978638,"","",EST,"",Active
Olive Cafe,"",Olive Cafe,42.3718109,-71.0794525,43 Gore St,"",Cambridge,MA,02141,US,6178764189,"","",EST,"",Active
Firebrand Saints,"",Firebrand Saints,42.3624106798768,-71.0832354426384,1 Broadway St,"",Cambridge,MA,02142,US,6174013399,"","",EST,"",Active
Falafel Corner,"",Falafel Corner,42.37248,-71.12142,8 Eliot St,"",Cambridge,MA,02138,US,6174418888,"","",EST,"",Active
Hub Bicycle Company,"",Hub Bicycle Company,42.372881774227,-71.095243886418,1036 Cambridge St,"",Cambridge,MA,02141,US,6174412500,"","",EST,"",Active
Dado Tea,"",Dado Tea,42.3741968,-71.1206414,50 Church St,"",Cambridge,MA,02138,US,6175470950,"","",EST,"",Active
John Harvard's Brewery & Ale House,"",John Harvard's Brewery & Ale House,42.3726428300142,-71.1192011833191,33 Dunster St,"",Cambridge,MA,02138,US,6178683585,"","",EST,"",Active
Abigail's Restaurant,"",Abigail's Restaurant,42.364634476563,-71.083137476506,291 3rd St,"",Cambridge,MA,02142,US,6179459086,"","",EST,"",Active
Bluefin,"",Bluefin,42.38729,-71.11839,1815 Massachusetts Ave,"",Cambridge,MA,02140,US,6174978022,"","",EST,"",Active
I Love Sushi,"",I Love Sushi,42.386939,-71.118967,1815 Massachusetts Ave,"",Cambridge,MA,02140,US,6174924655,"","",EST,"",Active
Bukowski Tavern,"",Bukowski Tavern,42.37367,-71.09877,1281 Cambridge St,"",Cambridge,MA,02139,US,6174977077,"","",EST,"",Active
Darul Kabab,"",Darul Kabab,42.391033,-71.123275,2072 Massachusetts Ave,"",Cambridge,MA,02140,US,6173544010,"","",EST,"",Active
Car Zone,"",Car Zone,42.3740599,-71.0936215,486 Columbia St,"",Cambridge,MA,02139,US,6175769663,"","",EST,"",Active
Tavern in the Square,"",Tavern in the Square,42.387597072352,-71.119031366101,1815 Massachusetts Ave,"",Cambridge,MA,02140,US,6173547766,"","",EST,"",Active
Pino Bros Ink,"",Pino Bros Ink,42.37298,-71.09572,1100 Cambridge St,"",Cambridge,MA,02139,US,6172509903,"","",EST,"",Active
Patty Chen's Dumpling Room,"",Patty Chen's Dumpling Room,42.3635198,-71.0996083,907 Main St,"",Cambridge,MA,02139,US,6174916616,"","",EST,"",Active
Courtside,"",Courtside,42.3712145537138,-71.0809481889009,299 Cambridge St,"",Cambridge,MA,02141,US,6175474374,"","",EST,"",Active
Mariposa Bakery,"",Mariposa Bakery,42.3633643434355,-71.1006173502852,424 Massachusetts Ave,"",Cambridge,MA,02139,US,6178766500,"","",EST,"",Active
Cilantro,"",Cilantro,42.3707199,-71.1132889,1105 Massachusetts Ave,"",Cambridge,MA,02138,US,6179451768,"","",EST,"",Active
India Castle,"",India Castle,42.36831,-71.10925,928 Massachusetts Ave,"",Cambridge,MA,02139,US,6178648100,"","",EST,"",Active
Legal Sea Foods,"",Legal Sea Foods,42.3627095,-71.0872718,5 Cambridge Ctr,"",Cambridge,MA,02142,US,6178643400,"","",EST,"",Active
Whitney's Cafe,"",Whitney's Cafe,42.37272,-71.12015,37 JFK St,"",Cambridge,MA,02138,US,6173548172,"","",EST,"",Active
Quad Bikes,"",Quad Bikes,42.3804212361574,-71.1244509369135,51 Shepard St,"",Cambridge,MA,02138,US,6174965955,"","",EST,"",Active
Desi Dhaba,"",Desi Dhaba,42.3636436462402,-71.099983215332,401 Massachusetts Ave,"",Cambridge,MA,02139,US,6175474121,"","",EST,"",Active
Starbucks,"",Starbucks,42.363725183001,-71.087830138841,6 Cambridge Ctr,"",Cambridge,MA,02142,US,6175777511,"","",EST,"",Active
Saté Grill-on-Wheels,"",Saté Grill-on-Wheels,42.3615636626372,-71.0862192362518,Kendall Square,"",Cambridge,MA,02142,US,,"","",EST,"",Active
Shalimar of India,"",Shalimar of India,42.36437,-71.1023,546 Massachusetts Ave,"",Cambridge,MA,02139,US,6175479280,"","",EST,"",Active
Flat Top Johnny's,"",Flat Top Johnny's,42.3666061748873,-71.0906624794006,1 Kendall Sq,"",Cambridge,MA,02139,US,6174949565,"","",EST,"",Active
The Thirsty Ear,"",The Thirsty Ear,42.3585920780897,-71.1009990423918,235 Albany St,"",Cambridge,MA,02139,US,6172589754,"","",EST,"",Active
Inman Oasis,"",Inman Oasis,42.374214,-71.100997,243 Hampshire St,"",Cambridge,MA,02139,US,6174910176,"","",EST,"",Active
Boca Grande,"",Boca Grande,42.38413,-71.11966,1728 Massachusetts Ave,"",Cambridge,MA,02138,US,6173547400,"","",EST,"",Active
Pronto,"",Pronto,42.3723605275154,-71.1219383776188,1 Bennett St,"",Cambridge,MA,02138,US,6172348080,"","",EST,"",Active
Deleo's Auto Body & Service,"",Deleo's Auto Body & Service,42.35833,-71.1058,75 Hamilton St,"",Cambridge,MA,02139,US,6178761344,"","",EST,"",Active
Spice Thai Cuisine,"",Spice Thai Cuisine,42.3721656799316,-71.118293762207,24 Holyoke St,"",Cambridge,MA,02138,US,6178689560,"","",EST,"",Active
Gather Here,"",Gather Here,42.370616,-71.104728,370 Broadway,"",Cambridge,MA,02139,US,7817759504,"","",EST,"",Active
Tavern in the Square,"",Tavern in the Square,42.3659133911133,-71.1051330566406,730 Massachusetts Ave,"",Cambridge,MA,02139,US,6178688800,"","",EST,"",Active
Riverside Pizza & Seafoods,"",Riverside Pizza & Seafoods,42.36247,-71.1133399,305 River St,"",Cambridge,MA,02139,US,6173548800,"","",EST,"",Active
Ampersand,"",Ampersand,42.3578344991831,-71.1092909119487,513 Putnam Ave,"",Cambridge,MA,02139,US,,"","",EST,"",Active
Beatnik Beverage Company,"",Beatnik Beverage Company,42.3626216,-71.0867026,325-355 Main St,"",Cambridge,MA,02142,US,6175555555,"","",EST,"",Active
New Deal Fish Market,"",New Deal Fish Market,42.3717384338379,-71.086784362793,622 Cambridge St,"",Cambridge,MA,02141,US,6178768227,"","",EST,"",Active
Follow The Honey,"",Follow The Honey,42.370789,-71.114197,1132 Massachusetts Ave,"",Cambridge,MA,02138,US,6179457356,"","",EST,"",Active
Market In the Square,"",Market In the Square,42.373933579687,-71.121228656129,60 Church St,"",Cambridge,MA,02138,US,6174412000,"","",EST,"",Active
241 Optical,"",241 Optical,42.370973789813,-71.1139011383057,1208 Massachusetts Ave,"",Cambridge,MA,02138,US,6174410006,"","",EST,"",Active
Harvard Book Store,"",Harvard Book Store,42.37241,-71.11631,1256 Massachusetts Ave,"",Cambridge,MA,02138,US,6176611515,"","",EST,"",Active
Chipotle Mexican Grill,"",Chipotle Mexican Grill,42.3892409144273,-71.1434334906597,277 Alewife Brook Pkwy,"",Cambridge,MA,02138,US,6175009373,"","",EST,"",Active
Moksa Restaurant,"",Moksa Restaurant,42.363596325237,-71.1010352921355,450 Massachusetts Ave,"",Cambridge,MA,02139,US,6176614900,"","",EST,"",Active
Passage To India,"",Passage To India,42.3888248,-71.1198138,1900 Massachusetts Ave,"",Cambridge,MA,02140,US,6174976113,"","",EST,"",Active
The Laundry Room Etc,"",The Laundry Room Etc,42.385231,-71.1191711,1761 Massachusetts Ave,"",Cambridge,MA,02140,US,6178689274,"","",EST,"",Active
Bruegger's Bagels,"",Bruegger's Bagels,42.38826,-71.11977,1876 Massachusetts Ave,"",Cambridge,MA,02140,US,6175766163,"","",EST,"",Active
The Asgard Irish Pub & Restaurant,"",The Asgard Irish Pub & Restaurant,42.3627292435173,-71.099576447626,350 Massachusetts Ave,"",Cambridge,MA,02139,US,6175779100,"","",EST,"",Active
Redemption Tattoo,"",Redemption Tattoo,42.3913498,-71.1235428,2094 Massachusetts Ave,"",Cambridge,MA,02140,US,6175760097,"","",EST,"",Active
Al-Hoda Market,"",Al-Hoda Market,42.3726546,-71.0984544,304 Prospect St,"",Cambridge,MA,02139,US,6174417854,"","",EST,"",Active
Pho House,"",Pho House,42.3859596,-71.1194687,1790 Massachusetts Ave,"",Cambridge,MA,02140,US,6175478888,"","",EST,"",Active
wagamama,"",wagamama,42.3721826,-71.1207341,57 JFK St,"",Cambridge,MA,02138,US,6174990930,"","",EST,"",Active
Night Market,"",Night Market,42.3720589,-71.1200104,75 Winthrop St,"",Cambridge,MA,02138,US,8572856948,"","",EST,"",Active
Darwin's,"",Darwin's,42.3625908,-71.0986786,313 Massachusetts Ave,"",Cambridge,MA,02139,US,6174971000,"","",EST,"",Active
Head of the Charles,"",Head of the Charles,42.3743728,-71.1375223,2 Gerrys Landing Road,"",Cambridge,MA,02138,US,6178686200,"","",EST,"",Active
CLM Auto Repair,"",CLM Auto Repair,42.373558,-71.094742,306 Webster Ave,"",Cambridge,MA,02141,US,6174976722,"","",EST,"",Active
Naco Taco,"",Naco Taco,42.362339,-71.0981064,297 Massachusetts Ave,"",Cambridge,MA,02139,US,6179451548,"","",EST,"",Active
Hong Kong At Harvard Square,"",Hong Kong At Harvard Square,42.3724568,-71.1161392,1238 Massachusetts Ave,"",Cambridge,MA,02138,US,6178645311,"","",EST,"",Active
Formaggio Kitchen,"",Formaggio Kitchen,42.3813524354203,-71.1338412419476,244 Huron Ave,"",Cambridge,MA,02138,US,6173544750,"","",EST,"",Active
The Sunset Cafe,"",The Sunset Cafe,42.3724632,-71.0909725,851/857 Cambridge St,"",Cambridge,MA,02141,US,6175472938,"","",EST,"",Active
Artist & Craftsman Supply,"",Artist & Craftsman Supply,42.36452,-71.10306,580 Massachusetts Ave,"",Cambridge,MA,02139,US,6173543636,"","",EST,"",Active
Midwest Grill Brazilian BBQ,"",Midwest Grill Brazilian BBQ,42.3728530184518,-71.09603,1124 Cambridge St,"",Cambridge,MA,02139,US,6173547536,"","",EST,"",Active
Starbucks,"",Starbucks,42.3738827223601,-71.1128014326096,468 Broadway,"",Cambridge,MA,02138,US,6174919911,"","",EST,"",Active
The Comedy Studio,"",The Comedy Studio,42.3724556,-71.1161423,1238 Massachusetts Ave,"",Cambridge,MA,02138,US,6176616507,"","",EST,"",Active
The Breathing Room,"",The Breathing Room,42.3660936700948,-71.1048623227539,763 Massachusetts Ave,"",Cambridge,MA,02139,US,6179774836,"","",EST,"",Active
BerryLine,"",BerryLine,42.37117,-71.1146011,3 Arrow St,"",Cambridge,MA,02138,US,6178683500,"","",EST,"",Active
Frank's Steakhouse,"",Frank's Steakhouse,42.39533,-71.12833,2310 Massachusetts Ave,"",Cambridge,MA,02140,US,6176610666,"","",EST,"",Active
Panera Bread,"",Panera Bread,42.38938,-71.119467,5 White St,"",Cambridge,MA,02140,US,6175470816,"","",EST,"",Active
Jacob Rasner - Keller Williams Realty,"",Jacob Rasner - Keller Williams Realty,42.369156,-71.109825,955 Massachusetts Ave,"",Cambridge,MA,02139,US,6178239780,"","",EST,"",Active
Lembu Real Estate,"",Lembu Real Estate,42.3642597445648,-71.1028397083282,22 Pearl St,"",Cambridge,MA,02139,US,6176829802,"","",EST,"",Active
Forty Winks,"",Forty Winks,42.3718710243702,-71.1206515878439,56 JF Kennedy St,"",Cambridge,MA,02138,US,6174929100,"","",EST,"",Active
Redline Fight Sports,"",Redline Fight Sports,42.3649864,-71.1032791,614 Massachusetts Ave,"",Cambridge,MA,02139,US,6178682275,"","",EST,"",Active
Mount Auburn Cemetery,"",Mount Auburn Cemetery,42.3751869,-71.1450272,580 Mt Auburn St,"",Cambridge,MA,02138,US,6175477105,"","",EST,"",Active
Dana Park,"",Dana Park,42.3615016043186,-71.1083590239286,74 Magazine St,"",Cambridge,MA,02139,US,,"","",EST,"",Active
Cambridge Common Park,"",Cambridge Common Park,42.376855,-71.120943,Garden St and Massachusetts Ave,"",Cambridge,MA,02138,US,,"","",EST,"",Active
MIT Press Bookstore,"",MIT Press Bookstore,42.3621520996094,-71.0858764648438,292 Main St,"",Cambridge,MA,02142,US,6172535249,"","",EST,"",Active
Sly's Barber Shop,"",Sly's Barber Shop,42.3645794391632,-71.1132567375898,321 Western Ave,"",Cambridge,MA,02139,US,6174913940,"","",EST,"",Active
Greene Rose Heritage Park,"",Greene Rose Heritage Park,42.3668063431978,-71.0947602242231,238 Broadway St,"",Cambridge,MA,02139,US,,"","",EST,"",Active
Yenching Restaurant,"",Yenching Restaurant,42.3729651,-71.1178634,1326 Massachusetts Ave,"",Cambridge,MA,02138,US,6175471130,"","",EST,"",Active
Harvard Square Holiday Craft Fair,"",Harvard Square Holiday Craft Fair,42.3745499,-71.1194,3 Church St,"",Cambridge,MA,02238,US,4136259779,"","",EST,"",Active
Mona Lisa Restaurant & Pizzeria,"",Mona Lisa Restaurant & Pizzeria,42.3748838156462,-71.1092555522919,1625 Cambridge St,"",Cambridge,MA,02138,US,6174911888,"","",EST,"",Active
Così,"",Così,42.361969,-71.0855026,290 Main St,"",Cambridge,MA,02142,US,6178685810,"","",EST,"",Active
Marathon Sports,"",Marathon Sports,42.381488,-71.12014,1654 Massachusetts Ave,"",Cambridge,MA,02138,US,6173544161,"","",EST,"",Active
Starbucks,"",Starbucks,42.373356227573,-71.119314278932,1380 Massachusetts Ave,"",Cambridge,MA,02138,US,6173543726,"","",EST,"",Active
Leavitt & Peirce Tobacco,"",Leavitt & Peirce Tobacco,42.3729432374239,-71.1174879223108,1316 Massachusetts Ave,"",Cambridge,MA,02138,US,6175470576,"","",EST,"",Active
Trader Joe's,"",Trader Joe's,42.358245038548,-71.114201341539,748 Memorial Dr,"",Cambridge,MA,02139,US,6174918582,"","",EST,"",Active
The Brattle Theatre,"",The Brattle Theatre,42.37362,-71.12139,40 Brattle St,"",Cambridge,MA,02138,US,6178766837,"","",EST,"",Active
Metropolitan Laundromat,"",Metropolitan Laundromat,42.3574905,-71.1077499,266 Brookline St,"",Cambridge,MA,02139,US,6178641303,"","",EST,"",Active
Potbelly Sandwich Shop,"",Potbelly Sandwich Shop,42.3884301,-71.118495,1 Porter Rd,"",Cambridge,MA,02140,US,6179362285,"","",EST,"",Active
Cambridge Public Library,"",Cambridge Public Library,42.3731846362352,-71.1106576770544,449 Broadway,"",Cambridge,MA,02138,US,6173494040,"","",EST,"",Active
Longfellow Park,"",Longfellow Park,42.376053,-71.127266,5 Longfellow Park,"",Cambridge,MA,02138,US,,"","",EST,"",Active
Yummy Thai Cuisine,"",Yummy Thai Cuisine,42.3944511413574,-71.126579284668,2261 Massachusetts Ave,"",Cambridge,MA,02140,US,6173547070,"","",EST,"",Active
Dosa Factory,"",Dosa Factory,42.364933013916,-71.1023483276367,571 Massachusetts Ave,"",Cambridge,MA,02139,US,6178683672,"","",EST,"",Active
Cambridge Historical Tours,"",Cambridge Historical Tours,42.3780754698197,-71.1230850219727,25 Mt Auburn St,"",Cambridge,MA,02138,US,6175204030,"","",EST,"",Active
Cambridge Pizzeria,"",Cambridge Pizzeria,42.3577068,-71.1079428,263 Brookline St,"",Cambridge,MA,02139,US,6175474588,"","",EST,"",Active
Skenderian Apothecary,"",Skenderian Apothecary,42.374921404417,-71.108929275233,1613 Cambridge St,"",Cambridge,MA,02138,US,6173545600,"","",EST,"",Active
Keezer's Classic Clothing,"",Keezer's Classic Clothing,42.3636,-71.10898,140 River St,"",Cambridge,MA,02139,US,6175472455,"","",EST,"",Active
Mona Lisa Pizza &  Grill,"",Mona Lisa Pizza &  Grill,42.3749024,-71.1091534,1621 Cambridge St,"",Cambridge,MA,02138,US,6174911888,"","",EST,"",Active
Starbucks,"",Starbucks,42.36568,-71.10356,655 Massachusetts Ave,"",Cambridge,MA,02139,US,6173545471,"","",EST,"",Active
Summer Shack,"",Summer Shack,42.393659192464,-71.1410794906298,149 Alewife Brook Pkwy,"",Cambridge,MA,02140,US,6175209500,"","",EST,"",Active
Downstairs Cafe,"",Downstairs Cafe,42.3671423189315,-71.0809712250976,222 3rd St,"",Cambridge,MA,02142,US,6178688100,"","",EST,"",Active
Harvard Market,"",Harvard Market,42.375063625564,-71.109347105041,1627 Cambridge St,"",Cambridge,MA,02138,US,6174410040,"","",EST,"",Active
The Dance Complex,"",The Dance Complex,42.3643481,-71.1022582,536 Massachusetts Ave,"",Cambridge,MA,02139,US,6175479363,"","",EST,"",Active
BollyX,"",BollyX,42.3642821,-71.1022109,The Dance Complex,"",Cambridge,MA,02139,US,,"","",EST,"",Active
Kika Tapas,"",Kika Tapas,42.3631063,-71.0827681,5 Broad Canal Way,"",Cambridge,MA,02142,US,6172456030,"","",EST,"",Active
Go! Go! Curry!,"",Go! Go! Curry!,42.3650219,-71.1027564,581 Massachusetts Ave,"",Cambridge,MA,02139,US,8572092747,"","",EST,"",Active
Massachusetts Institute of Technology,"",Massachusetts Institute of Technology,42.3611717,-71.0864716,25 Carleton St,"",Cambridge,MA,02142,US,6172534481,"","",EST,"",Active
Schoenhof's Foreign Books,"",Schoenhof's Foreign Books,42.371991239103,-71.119171497432,76A Mt Auburn St,"",Cambridge,MA,02138,US,6175478855,"","",EST,"",Active
Café Gato Rojo,"",Café Gato Rojo,42.3735419007205,-71.1184930801392,"Basement of Dudley Lehman Hall, Harvard Yard","",Cambridge,MA,02138,US,6174964658,"","",EST,"",Active
Ed Greable - Keller Williams Realty,"",Ed Greable - Keller Williams Realty,42.369155,-71.109825,955 Massachusetts Ave,"",Cambridge,MA,02139,US,6179059128,"","",EST,"",Active
Shawarma Shack,"",Shawarma Shack,42.3591790287207,-71.0947198650838,Stratton Student Center,"",Cambridge,MA,02139,US,6173245568,"","",EST,"",Active
Kendall Kitchen,"",Kendall Kitchen,42.3659500479698,-71.0923958569765,201  Broadway,"",Cambridge,MA,02139,US,6172257704,"","",EST,"",Active
American Repertory Theater,"",American Repertory Theater,42.3748956554954,-71.1229155610334,64 Brattle St,"",Cambridge,MA,02138,US,6175478300,"","",EST,"",Active
Harvard Street Dental,"",Harvard Street Dental,42.3695488,-71.1045227,287 Harvard St,"",Cambridge,MA,02139,US,6174923535,"","",EST,"",Active
Crazy Dough's Pizza,"",Crazy Dough's Pizza,42.3727112263441,-71.1199622601271,The Garage,"",Cambridge,MA,02138,US,6174924848,"","",EST,"",Active
Foreign Auto Center,"",Foreign Auto Center,42.37157,-71.09979,251 Prospect St,"",Cambridge,MA,02139,US,6176618558,"","",EST,"",Active
BerryLine,"",BerryLine,42.382132537452,-71.119909164422,1668 Massachusetts Ave,"",Cambridge,MA,02138,US,6174923555,"","",EST,"",Active
Bertucci's,"",Bertucci's,42.36346,-71.09723,799 Main St,"",Cambridge,MA,02138,US,6176618356,"","",EST,"",Active
Charlie's Barber Shop,"",Charlie's Barber Shop,42.3860207,-71.1194611,1794 Massachusetts Ave,"",Cambridge,MA,02140,US,6178761116,"","",EST,"",Active
Fort Washington,"",Fort Washington,42.3564007133245,-71.1049318313599,115 Waverly St,"",Cambridge,MA,02139,US,,"","",EST,"",Active
Qdoba Mexican Grill,"",Qdoba Mexican Grill,42.3726807,-71.1167831,1280 Massachusetts Avenue,"",Cambridge,MA,02138,US,6178711136,"","",EST,"",Active
O Sushi Restaurant & Bar,"",O Sushi Restaurant & Bar,42.3725556582212,-71.1217472702265,1 Eliot St,"",Cambridge,MA,02138,US,6179459450,"","",EST,"",Active
Raven Used Books,"",Raven Used Books,42.37449,-71.11984,23 Church St,"",Cambridge,MA,02138,US,6174416999,"","",EST,"",Active
Beantown Taqueria,"",Beantown Taqueria,42.364795,-71.108772,148 Western Ave,"",Cambridge,MA,02139,US,6178646969,"","",EST,"",Active
WardMaps,"",WardMaps,42.3842812,-71.1191635,1735 Massachusetts Ave,"",Cambridge,MA,02138,US,6174970737,"","",EST,"",Active
Pizza Pie-er,"",Pizza Pie-er,42.3726938016307,-71.0991704463959,187 Hampshire St,"",Cambridge,MA,02139,US,6173492200,"","",EST,"",Active
Body Zen Skin Care,"",Body Zen Skin Care,42.39072,-71.1222,Novita Salon,"",Cambridge,MA,02140,US,6179998368,"","",EST,"",Active
University Stationery,"",University Stationery,42.3623335,-71.0985367,311 Massachusetts Ave,"",Cambridge,MA,02139,US,6175476650,"","",EST,"",Active
A Quinn Hair Studio,"",A Quinn Hair Studio,42.3710037,-71.1141217,5 Arrow St,"",Cambridge,MA,02138,US,6173545354,"","",EST,"",Active
Art Bar,"",Art Bar,42.367142268416,-71.074268317307,40 Edwin H Land Blvd,"",Cambridge,MA,02142,US,6178064122,"","",EST,"",Active
Starbucks,"",Starbucks,42.3745193,-71.1201782,31 Church St,"",Cambridge,MA,02138,US,6174927870,"","",EST,"",Active
Fire and Ice,"",Fire and Ice,42.374158134924,-71.12076724551,50 Church St,"",Cambridge,MA,02138,US,6175479007,"","",EST,"",Active
SEE,"",SEE,42.3726888,-71.116765,1276 Massachusetts Ave,"",Cambridge,MA,02138,US,6178681500,"","",EST,"",Active
Goosebeary's Food Truck,"",Goosebeary's Food Truck,42.3664474487305,-71.1057357788086,Carlton St & Ames St,"",Cambridge,MA,02238,US,,"","",EST,"",Active
Andy's Diner,"",Andy's Diner,42.3906898,-71.1221237,2030 Massachusetts Ave,"",Cambridge,MA,02140,US,6174971444,"","",EST,"",Active
Uno Pizzeria & Grill,"",Uno Pizzeria & Grill,42.3728788644075,-71.1198241263628,Harvard Square,"",Cambridge,MA,02138,US,6174971530,"","",EST,"",Active
Christina's Homemade Ice Cream,"",Christina's Homemade Ice Cream,42.3735642129033,-71.0983584498918,1255 Cambridge St,"",Cambridge,MA,02139,US,6174927021,"","",EST,"",Active
Savenor's Market,"",Savenor's Market,42.377942471184,-71.107392630267,92 Kirkland St,"",Cambridge,MA,02138,US,6175766328,"","",EST,"",Active
Grolier Poetry Book Shop,"",Grolier Poetry Book Shop,42.3724738508463,-71.116486787796,6 Plympton St,"",Cambridge,MA,02138,US,6175474648,"","",EST,"",Active
Camie's Bakery & Restaurant,"",Camie's Bakery & Restaurant,42.36685,-71.09784,152 Columbia St,"",Cambridge,MA,02139,US,6176614878,"","",EST,"",Active
Jimmy's Shoe Repair,"",Jimmy's Shoe Repair,42.3661699,-71.1032199,42 Prospect St,"",Cambridge,MA,02139,US,6178688838,"","",EST,"",Active
Le Couturier House of Alterations,"",Le Couturier House of Alterations,42.3645016551018,-71.1023200303316,550 Massachusetts Ave,"",Cambridge,MA,02139,US,6174971258,"","",EST,"",Active
Iggy's Bread,"",Iggy's Bread,42.3934783935547,-71.1480865478516,130 Fawcett St,"",Cambridge,MA,02138,US,6174917600,"","",EST,"",Active
Hourglass Tattoo Studio,"",Hourglass Tattoo Studio,42.3824462890625,-71.1200790405273,1680 A Massachusetts Ave,"",Cambridge,MA,02138,US,6178683300,"","",EST,"",Active
Central Bottle Wine + Provisions,"",Central Bottle Wine + Provisions,42.3611221,-71.0967636,196 Massachusetts Ave,"",Cambridge,MA,02139,US,6172250040,"","",EST,"",Active
Greek American Political Club,"",Greek American Political Club,42.36453,-71.10438,288 Green St,"",Cambridge,MA,02139,US,6173548178,"","",EST,"",Active
The Cheesecake Factory,"",The Cheesecake Factory,42.3680170714471,-71.0763394606628,100 Cambridgeside Pl,"",Cambridge,MA,02141,US,6172523810,"","",EST,"",Active
Cambridge House of Pizza,"",Cambridge House of Pizza,42.3977342247963,-71.1306850612164,2420 Massachusetts Ave,"",Cambridge,MA,02140,US,6178768083,"","",EST,"",Active
Broadway Bicycle School,"",Broadway Bicycle School,42.3704605102539,-71.1035232543945,351 Broadway,"",Cambridge,MA,02139,US,6178683392,"","",EST,"",Active
The Million Year Picnic,"",The Million Year Picnic,42.37286,-71.120596,99 Mount Auburn St,"",Cambridge,MA,02138,US,6174926763,"","",EST,"",Active
Queen Dressmakers,"",Queen Dressmakers,42.3750457763672,-71.1515502929688,37 Belmont St,"",Cambridge,MA,02138,US,6176619551,"","",EST,"",Active
IHOP,"",IHOP,42.3720207,-71.121521,16-18 Eliot St,"",Cambridge,MA,02138,US,6173540999,"","",EST,"",Active
Rockler Woodworking & Hardware,"",Rockler Woodworking & Hardware,42.3922005,-71.1246567,2154 Massachusetts Ave,"",Cambridge,MA,02140,US,6174971136,"","",EST,"",Active
Chill Out First Class Transportation Services,"",Chill Out First Class Transportation Services,42.375792874538,-71.1048889160156,"Cambridge, MA 02139","",Cambridge,MA,02139,US,6172123763,"","",EST,"",Active
Petali Flowers,"",Petali Flowers,42.3723793,-71.1199036,92 Mount Auburn St,"",Cambridge,MA,02138,US,6174923600,"","",EST,"",Active
Starbucks,"",Starbucks,42.3678512573242,-71.0757369995117,100 Cambridgeside Pl,"",Cambridge,MA,02141,US,6176219507,"","",EST,"",Active
Mexicali Burrito Co,"",Mexicali Burrito Co,42.3627799680252,-71.091456413269,500 Technology Sq,"",Cambridge,MA,02139,US,6172252777,"","",EST,"",Active
Rebecca's Cafe,"",Rebecca's Cafe,42.362173172742,-71.085392641623,290 Main St,"",Cambridge,MA,02142,US,6174946688,"","",EST,"",Active
Poetry Moving,"",Poetry Moving,42.383572,-71.11461,Eustis Str,"",Cambridge,MA,02140,US,7819568405,"","",EST,"",Active
Cakes By Terri,"",Cakes By Terri,42.3679328709841,-71.0828069597483,157 Charles St,"",Cambridge,MA,02141,US,6173351133,"","",EST,"",Active
Harvard Museum of Natural History,"",Harvard Museum of Natural History,42.378365,-71.11603671,26 Oxford St,"",Cambridge,MA,02138,US,6174953045,"","",EST,"",Active
Skin Art Studio,"",Skin Art Studio,42.371498,-71.085106,528 Cambridge St,"",Cambridge,MA,02141,US,6174992911,"","",EST,"",Active
Guangzhou Restaurant,"",Guangzhou Restaurant,42.3732414,-71.0977707,1220 Cambridge St,"",Cambridge,MA,02139,US,6175476368,"","",EST,"",Active
Beijing Tokyo,"",Beijing Tokyo,42.3633194,-71.0968399,781 Main St,"",Cambridge,MA,02139,US,6173543388,"","",EST,"",Active
"Hotel Marlowe, a Kimpton Hotel","","Hotel Marlowe, a Kimpton Hotel",42.3670421573529,-71.075234413147,25 Edwin H Land Blvd,"",Cambridge,MA,02141,US,6178688000,"","",EST,"",Active
Q Audio,"",Q Audio,42.3638705,-71.1015095,5 Brookline St,"",Cambridge,MA,02139,US,6175472727,"","",EST,"",Active
Kendall Square Cinema,"",Kendall Square Cinema,42.368675,-71.090108,1 Kendall Sq,"",Cambridge,MA,02139,US,6176211202,"","",EST,"",Active
Euphoria Barbershop,"",Euphoria Barbershop,42.3721034,-71.0888891,766B Cambridge St,"",Cambridge,MA,02141,US,6179451137,"","",EST,"",Active
David's Shoes On First,"",David's Shoes On First,42.3684616,-71.0777893,75 First St,"",Cambridge,MA,02141,US,6173543730,"","",EST,"",Active
Trattoria Pulcinella,"",Trattoria Pulcinella,42.382737103979,-71.130739786673,147 Huron Ave,"",Cambridge,MA,02138,US,6174916336,"","",EST,"",Active
Custom Eyes,"",Custom Eyes,42.3659897,-71.1032028,50 Prospect St,"",Cambridge,MA,02139,US,6173493937,"","",EST,"",Active
Franklin Street Park,"",Franklin Street Park,42.3675821721554,-71.110495403409,495 Franklin Street,"",Cambridge,MA,02139,US,,"","",EST,"",Active
Lingo Bar & Grill,"",Lingo Bar & Grill,42.3696481436491,-71.0711889714003,8 Education St,"",Cambridge,MA,02141,US,6176192409,"","",EST,"",Active
NGIN Workplace,"",NGIN Workplace,42.3658676147461,-71.0934677124023,210 Broadway,"",Cambridge,MA,02139,US,6178633770,"","",EST,"",Active
Bisuteki Japanese Steak House,"",Bisuteki Japanese Steak House,42.3586699,-71.11471,777 Memorial Dr,"",Cambridge,MA,02139,US,6174978888,"","",EST,"",Active
Starbucks,"",Starbucks,42.3579413867083,-71.1150920391083,750 Memorial Dr,"",Cambridge,MA,02139,US,6176615817,"","",EST,"",Active
Chameleon Tattoo & Body Piercing,"",Chameleon Tattoo & Body Piercing,42.3727417,-71.119873,36 JFK St,"",Cambridge,MA,02138,US,6174914335,"","",EST,"",Active
Sebastians Cafe & Catering,"",Sebastians Cafe & Catering,42.3628645282318,-71.0884952545166,7 Cambridge Ctr,"",Cambridge,MA,02139,US,6177580112,"","",EST,"",Active
Eye Q Optical,"",Eye Q Optical,42.37235,-71.1216199,12 Eliot St,"",Cambridge,MA,02138,US,6173543303,"","",EST,"",Active
Harvard Square Acupuncture and Massage,"",Harvard Square Acupuncture and Massage,42.3708878,-71.1143799,12 Arrow St,"",Cambridge,MA,02138,US,6173493600,"","",EST,"",Active
Aestheticare Day Spa,"",Aestheticare Day Spa,42.3711340874434,-71.0810293257236,310 Cambridge St,"",Cambridge,MA,02141,US,6176611113,"","",EST,"",Active
Suvaai,"",Suvaai,42.396759,-71.1297684,2378 Massachusetts Ave,"",Cambridge,MA,02140,US,8572596552,"","",EST,"",Active
Club Passim,"",Club Passim,42.3738387,-71.1200116,47 Palmer St,"",Cambridge,MA,02138,US,6174925300,"","",EST,"",Active
Thai Therapy By Mary,"",Thai Therapy By Mary,42.3648212,-71.109889,318 Western Ave,"",Cambridge,MA,02139,US,6175759104,"","",EST,"",Active
Starbucks,"",Starbucks,42.3628998,-71.0857391,2 Cambridge Ctr,"",Cambridge,MA,02142,US,6174946600,"","",EST,"",Active
Harvard Film Archive,"",Harvard Film Archive,42.3739114,-71.1144998,24 Quincy St,"",Cambridge,MA,02238,US,6174954700,"","",EST,"",Active
Aladdin Auto Service,"",Aladdin Auto Service,42.3904697815908,-71.1387491226196,162 Alewife Brook Pkwy,"",Cambridge,MA,02138,US,6175478000,"","",EST,"",Active
Black Sheep Restaurant,"",Black Sheep Restaurant,42.3626980514867,-71.0867786407471,Kendall Hotel,"",Cambridge,MA,02142,US,6175771300,"","",EST,"",Active
Acupuncture Together,"",Acupuncture Together,42.399248925766,-71.1319255828857,2464 Massachusetts Ave,"",Cambridge,MA,02140,US,6174999993,"","",EST,"",Active
Wrapro Falafel & Grill,"",Wrapro Falafel & Grill,42.3820681745739,-71.119939539499,1670 Massachusetts Ave,"",Cambridge,MA,02138,US,6178760311,"","",EST,"",Active
On The Spot Computer Repairs,"",On The Spot Computer Repairs,42.365295,-71.099121,75 Columbia St,"",Cambridge,MA,02139,US,6176520484,"","",EST,"",Active
Brattle Square Florist,"",Brattle Square Florist,42.3735,-71.12082,31 Brattle Street,"",Cambridge,MA,02138,US,6178769839,"","",EST,"",Active
Prana Power Yoga,"",Prana Power Yoga,42.3650017,-71.1027603,585 Mass Ave,"",Cambridge,MA,02139,US,6176419642,"","",EST,"",Active
Armageddon Shop,"",Armageddon Shop,42.3723488,-71.1216202,12 Eliot St,"",Cambridge,MA,02138,US,6174921235,"","",EST,"",Active
Hands-On Health Associates,"",Hands-On Health Associates,42.387291,-71.1183929,1815 Massachusetts Ave,"",Cambridge,MA,02140,US,6176614325,"","",EST,"",Active
The Curious George Store,"",The Curious George Store,42.373526,-71.119784,1 JFK St,"",Cambridge,MA,02138,US,6175474500,"","",EST,"",Active
Paper Source,"",Paper Source,42.38677,-71.11937,1810 Massachusetts Ave,"",Cambridge,MA,02140,US,6174971077,"","",EST,"",Active
Harvard Square Chiropractic,"",Harvard Square Chiropractic,42.373905,-71.123077,15 Story St,"",Cambridge,MA,02138,US,6174410101,"","",EST,"",Active
Mayflower Poultry,"",Mayflower Poultry,42.37198,-71.08658,621 Cambridge St,"",Cambridge,MA,02141,US,6175479191,"","",EST,"",Active
Tapicha,"",Tapicha,42.38729,-71.11839,1815 Massachusetts Avenue,"",Cambridge,MA,02140,US,,"","",EST,"",Active
Natural Healing Center,"",Natural Healing Center,42.3907012,-71.1221672,2032 Massachusetts Ave,"",Cambridge,MA,02140,US,6179452892,"","",EST,"",Active
Taste of Cambridge,"",Taste of Cambridge,42.3622740805149,-71.1004203557968,23 Sidney St,"",Cambridge,MA,02238,US,,"","",EST,"",Active
Paradise Bar,"",Paradise Bar,42.3608093,-71.0962601,180 Massachusetts Ave,"",Cambridge,MA,02238,US,6178683000,"","",EST,"",Active
Paul Campano - Keller Williams Realty,"",Paul Campano - Keller Williams Realty,42.3691483,-71.1098404,955 Massachusetts Ave,"",Cambridge,MA,02139,US,6173043686,"","",EST,"",Active
Imagine: A Center For Community & the Arts,"",Imagine: A Center For Community & the Arts,42.387432,-71.140198,23 Bay State Rd,"",Cambridge,MA,02138,US,6176610077,"","",EST,"",Active
Basha Cafe,"",Basha Cafe,42.3879585,-71.1405716,26 New St,"",Cambridge,MA,02138,US,6179457661,"","",EST,"",Active
Harvard University,"",Harvard University,42.373099,-71.1216084,Harvard Square,"",Cambridge,MA,02138,US,6174953434,"","",EST,"",Active
Tudor Street Dog Park,"",Tudor Street Dog Park,42.36041489733199,-71.1039018630981,Tudor St,"",Cambridge,MA,02139,US,,"","",EST,"",Active
Central Square Eye Care,"",Central Square Eye Care,42.3651527613401,-71.1044362932444,3 Central Sq,"",Cambridge,MA,02139,US,6174972015,"","",EST,"",Active
Concord Avenue Cafe,"",Concord Avenue Cafe,42.3836212,-71.1340485,294 Concord Ave,"",Cambridge,MA,02138,US,6175478835,"","",EST,"",Active
Tatte Bakery & Cafe,"",Tatte Bakery & Cafe,42.3621608144389,-71.0811372880639,101 Main St,"",Cambridge,MA,02142,US,6175771111,"","",EST,"",Active
Inman Square Hardware,"",Inman Square Hardware,42.3737,-71.09985,1337 Cambridge St,"",Cambridge,MA,02139,US,6174913405,"","",EST,"",Active
Taco Bell,"",Taco Bell,42.36705,-71.076034,100 Cambridgeside Place,"",Cambridge,MA,02141,US,6176210609,"","",EST,"",Active
Jill Brown-Rhone Park,"",Jill Brown-Rhone Park,42.363295720144,-71.099788741129,900 Main St,"",Cambridge,MA,02139,US,,"","",EST,"",Active
Garrity Insurance,"",Garrity Insurance,42.3882103,-71.1426926,545 Concord Ave,"",Cambridge,MA,02138,US,6173544640,"","",EST,"",Active
Turnstyle Cycle,"",Turnstyle Cycle,42.3660009373141,-71.0911584008026,One Kendall Square,"",Cambridge,MA,02139,US,8572423039,"","",EST,"",Active
City Motor Group Inc.,"",City Motor Group Inc.,42.37176,-71.07866,186 Monsignor O'Brien Hwy,"",Cambridge,MA,02141,US,6175470692,"","",EST,"",Active
Salon Luna,"",Salon Luna,42.388279,-71.1196213,1878 Massachusetts Ave,"",Cambridge,MA,02140,US,6174927792,"","",EST,"",Active
California Pizza Kitchen,"",California Pizza Kitchen,42.3685006948806,-71.0763716697693,100 Cambridge Side Pl.,"",Cambridge,MA,02141,US,6172252772,"","",EST,"",Active
Rodney's Bookstore,"",Rodney's Bookstore,42.36583,-71.10477,698 Massachusetts Ave,"",Cambridge,MA,02139,US,6178766467,"","",EST,"",Active
Charles Square,"",Charles Square,42.3723605275154,-71.1219383776188,1 Bennett St,"",Cambridge,MA,02138,US,6178641200,"","",EST,"",Active
Alfred Harvard Square Salon,"",Alfred Harvard Square Salon,42.3728844631885,-71.1224159774544,Harvard Square,"",Cambridge,MA,02138,US,6174975009,"","",EST,"",Active
MIT Trucks,"",MIT Trucks,42.3612289,-71.0862885,Carleton St,"",Cambridge,MA,02142,US,,"","",EST,"",Active
Au Bon Pain,"",Au Bon Pain,42.372967359235005,-71.118696800769,1360 Massachusetts Ave,"",Cambridge,MA,02138,US,6174979797,"","",EST,"",Active
Cambridge Health Associates,"",Cambridge Health Associates,42.3700357,-71.1023753,335 Broadway,"",Cambridge,MA,02139,US,6173548360,"","",EST,"",Active
Carlmont Lock,"",Carlmont Lock,42.380054473877,-71.1328887939453,Huron Village,"",Cambridge,MA,02138,US,6174928837,"","",EST,"",Active
Oona's,"",Oona's,42.3719752,-71.1155222,1210 Massachusetts Ave,"",Cambridge,MA,02138,US,6174912654,"","",EST,"",Active
Jungle Jim's,"",Jungle Jim's,42.36437,-71.1026,Central Square,"",Cambridge,MA,02139,US,8883358645,"","",EST,"",Active
Clover MIT,"",Clover MIT,42.3627019588277,-71.0875036559416,20 Carleton St,"",Cambridge,MA,02142,US,,"","",EST,"",Active
Sasha Salon and Spa,"",Sasha Salon and Spa,42.37154,-71.11543,23 Arrow St,"",Cambridge,MA,02138,US,6174974144,"","",EST,"",Active
ASA Hair Design,"",ASA Hair Design,42.3727417,-71.119873,36 JFK St,"",Cambridge,MA,02138,US,6176616573,"","",EST,"",Active
Porter Square Books,"",Porter Square Books,42.389665952991,-71.11894500338,Porter Square Shopping Ctr,"",Cambridge,MA,02140,US,6174912220,"","",EST,"",Active
Cardullo's Gourmet Shoppe,"",Cardullo's Gourmet Shoppe,42.3735416879435,-71.1196751725476,Harvard Square,"",Cambridge,MA,02138,US,6174918888,"","",EST,"",Active
Vinnie's Auto Sport,"",Vinnie's Auto Sport,42.3719635009766,-71.0790328979492,196 Monsignor Obrien Hwy,"",Cambridge,MA,02141,US,6175476169,"","",EST,"",Active
Beauty Spa,"",Beauty Spa,42.3852780461311,-71.1193782091141,1766 Massachusetts Ave,"",Cambridge,MA,02140,US,6178684778,"","",EST,"",Active
iFixYouri Smart Device Repair,"",iFixYouri Smart Device Repair,42.3679343,-71.0761293,100 Cambridgeside Pl,"",Cambridge,MA,02141,US,6176165966,"","",EST,"",Active
Sandrine Deschaux,"",Sandrine Deschaux,42.3684844970703,-71.1084442138672,907 Massachusetts Ave,"",Cambridge,MA,02139,US,8572049872,"","",EST,"",Active
Boca Grande,"",Boca Grande,42.3663902282715,-71.0782165527344,149 1st St,"",Cambridge,MA,02142,US,6173545550,"","",EST,"",Active
Tech Superpowers,"",Tech Superpowers,42.3726497,-71.1168055,1280 Massachusetts Ave,"",Cambridge,MA,02138,US,6177782837,"","",EST,"",Active
Bonny's Garden Center,"",Bonny's Garden Center,42.3875045776367,-71.139778137207,41 Bay State Rd,"",Cambridge,MA,02138,US,6175471585,"","",EST,"",Active
Cambridge Insight Meditation Center,"",Cambridge Insight Meditation Center,42.37,-71.10203,331 Broadway,"",Cambridge,MA,02139,US,6174419038,"","",EST,"",Active
Zinnia,"",Zinnia,42.37282,-71.11725,1300 Massachusetts Ave,"",Cambridge,MA,02138,US,6173541800,"","",EST,"",Active
Bailey and Sage,"",Bailey and Sage,42.3625103,-71.08652,331 Main St,"",Cambridge,MA,02139,US,6177144138,"","",EST,"",Active
Champions Sports Bar,"",Champions Sports Bar,42.362650976746,-71.085554223037,50 Broadway,"",Cambridge,MA,02142,US,6172524444,"","",EST,"",Active
Franco's Hair Studio,"",Franco's Hair Studio,42.3717994689941,-71.0987014770508,157 Hampshire St,"",Cambridge,MA,02139,US,6175473867,"","",EST,"",Active
Commonwealth Oral & Maxillofacial Surgical Associates,"",Commonwealth Oral & Maxillofacial Surgical Associates,42.396380379796,-71.1290073394775,2353 Massachusetts Ave,"",Cambridge,MA,02140,US,6174928700,"","",EST,"",Active
Whole Foods Market,"",Whole Foods Market,42.361094964727,-71.114041629153,340 River St,"",Cambridge,MA,02139,US,6178766990,"","",EST,"",Active
Negash Auto Service,"",Negash Auto Service,42.36294,-71.10438,76 Pearl St,"",Cambridge,MA,02139,US,6174911900,"","",EST,"",Active
Madhouse Motors,"",Madhouse Motors,42.3653363,-71.1044623,Central Square,"",Cambridge,MA,02139,US,8572223855,"","",EST,"",Active
Dickson Brothers True Value,"",Dickson Brothers True Value,42.3731194,-71.1204071,26 Brattle St,"",Cambridge,MA,02138,US,6178766760,"","",EST,"",Active
Le Petit Salon & Spa,"",Le Petit Salon & Spa,42.3675117,-71.1073608,862 Massachusetts Ave,"",Cambridge,MA,02139,US,6172508464,"","",EST,"",Active
Rebalance Bodywork and Massage,"",Rebalance Bodywork and Massage,42.375792874538,-71.1083221435547,875 Massachusetts Ave,"",Cambridge,MA,02139,US,6178998150,"","",EST,"",Active
Hunt's Photo & Video,"",Hunt's Photo & Video,42.37288,-71.120578,99 Mount Auburn St,"",Cambridge,MA,02138,US,6175760969,"","",EST,"",Active
Black Ink,"",Black Ink,42.373509,-71.1198661,5 Brattle St,"",Cambridge,MA,02138,US,6174971221,"","",EST,"",Active
Wet Paint Nail Spa,"",Wet Paint Nail Spa,42.3828087,-71.1306534,143 Huron Ave,"",Cambridge,MA,02138,US,6178680620,"","",EST,"",Active
Cambridge Innovation Center,"",Cambridge Innovation Center,42.3627931811093,-71.0840106010437,1 Broadway,"",Cambridge,MA,02142,US,6177584200,"","",EST,"",Active
Flashprint,"",Flashprint,42.372921,-71.120529,99 Mount Auburn St,"",Cambridge,MA,02138,US,6174927767,"","",EST,"",Active
ImprovBoston Theatre,"",ImprovBoston Theatre,42.36612,-71.10328,40 Prospect St,"",Cambridge,MA,02139,US,6175761253,"","",EST,"",Active
Goorin Bros.,"",Goorin Bros.,42.3738098,-71.1212311,43 Brattle St,"",Cambridge,MA,02138,US,6178684287,"","",EST,"",Active
Tibet Arts,"",Tibet Arts,42.3894500732422,-71.1196823120117,1925A Massachusetts Ave,"",Cambridge,MA,02140,US,6174919106,"","",EST,"",Active
Zigo,"",Zigo,42.3627396,-71.0832825,Kendall Sq,"",Cambridge,MA,02238,US,6172256924,"","",EST,"",Active
Rogue Burlesque,"",Rogue Burlesque,42.3709412,-71.1143036,2 Arrow St,"",Cambridge,MA,02138,US,,"","",EST,"",Active
Panera Bread,"",Panera Bread,42.3726046316704,-71.1169588565826,1288 Massachusetts Ave,"",Cambridge,MA,02138,US,6178680651,"","",EST,"",Active
Starbucks,"",Starbucks,42.3819122722422,-71.1199329521487,1662 Mass Ave,"",Cambridge,MA,02138,US,6174910442,"","",EST,"",Active
Plan B Salon,"",Plan B Salon,42.372921,-71.120529,Harvard Sq,"",Cambridge,MA,02138,US,6175475262,"","",EST,"",Active
Good News Garage,"",Good News Garage,42.35833,-71.1058,75 Hamilton St,"",Cambridge,MA,02139,US,6173545383,"","",EST,"",Active
Chipotle Mexican Grill,"",Chipotle Mexican Grill,42.3648682,-71.1031418,598 Massachusetts Ave,"",Cambridge,MA,02139,US,8575004066,"","",EST,"",Active
Troy Anthony's Barber Shop,"",Troy Anthony's Barber Shop,42.3734075028242,-71.0972773076663,1199 Cambridge St,"",Cambridge,MA,02139,US,6176616791,"","",EST,"",Active
J. Press,"",J. Press,42.3721244931221,-71.1191522330046,82 Mt. Auburn St,"",Cambridge,MA,02138,US,6175479886,"","",EST,"",Active
Serenity Wellness Massage,"",Serenity Wellness Massage,42.370059,-71.102315,335 Broadway St,"",Cambridge,MA,02139,US,6174316616,"","",EST,"",Active
Au Bon Pain,"",Au Bon Pain,42.36220117614,-71.08504387591,238 Main St,"",Cambridge,MA,02142,US,6174919751,"","",EST,"",Active
Dunkin' Donuts,"",Dunkin' Donuts,42.369433985219,-71.1114282429931,1001 Massachusetts Ave,"",Cambridge,MA,02138,US,6177143827,"","",EST,"",Active
Discovery Cafe,"",Discovery Cafe,42.3669535921544,-71.0878271321626,157 Sixth St,"",Cambridge,MA,02141,US,6172271625,"","",EST,"",Active
Fast Phil's,"",Fast Phil's,42.3994369506836,-71.1335678100586,2528 Massachusetts Ave,"",Cambridge,MA,02140,US,6173544666,"","",EST,"",Active
MIT Museum,"",MIT Museum,42.362007459758,-71.0977546125011,265 Massachusetts Ave,"",Cambridge,MA,02139,US,6172535927,"","",EST,"",Active
The Boston Lamb Takedown,"",The Boston Lamb Takedown,42.3637886,-71.1012726,The Middle East,"",Cambridge,MA,02139,US,,"","",EST,"",Active
CrossFit Medusa,"",CrossFit Medusa,42.3899582,-71.1204633,1957 Massachusetts Ave,"",Cambridge,MA,02140,US,6179993548,"","",EST,"",Active
Hops N Scotch,"",Hops N Scotch,42.3733723908663,-71.0983718186617,1248 Cambridge St,"",Cambridge,MA,02139,US,8572424980,"","",EST,"",Active
O2 Yoga Studio Cambridge,"",O2 Yoga Studio Cambridge,42.3694308847189,-71.1113188415766,1001 Massachusetts Ave,"",Cambridge,MA,02138,US,6174910002,"","",EST,"",Active
Whim Events & Floral Design,"",Whim Events & Floral Design,42.380054473877,-71.1328887939453,Huron Village,"",Cambridge,MA,02138,US,6174139735,"","",EST,"",Active
Laundromutt,"",Laundromutt,42.3869552612305,-71.1406097412109,489 Concord Ave,"",Cambridge,MA,02138,US,6178649274,"","",EST,"",Active
Pill Hardware,"",Pill Hardware,42.3664599,-71.1051899,743 Massachusetts Ave,"",Cambridge,MA,02139,US,6178768310,"","",EST,"",Active
OM Namo Center,"",OM Namo Center,42.3750114,-71.1508713,21 Belmont St,"",Cambridge,MA,02138,US,6178680756,"","",EST,"",Active
Tags Ace Hardware,"",Tags Ace Hardware,42.3896882510668,-71.1186947222918,29 White St,"",Cambridge,MA,02140,US,6178687711,"","",EST,"",Active
Au Bon Pain,"",Au Bon Pain,42.3703183786345,-71.1135487028485,1100 Massachusetts Ave,"",Cambridge,MA,02138,US,6173544144,"","",EST,"",Active
Verna's Coffee & Donut Shop,"",Verna's Coffee & Donut Shop,42.3959808349609,-71.1290054321289,2344 Massachusetts Ave,"",Cambridge,MA,02140,US,6173544110,"","",EST,"",Active
Alfredos Italian Kitchen,"",Alfredos Italian Kitchen,42.3721699,-71.0881,691 Cambridge St,"",Cambridge,MA,02141,US,6174918292,"","",EST,"",Active
Kendall House of Pizza,"",Kendall House of Pizza,42.3676493,-71.0813277,201 3rd St,"",Cambridge,MA,02141,US,6175471790,"","",EST,"",Active
Audio Lab,"",Audio Lab,42.37274,-71.11987,36 JFK St,"",Cambridge,MA,02138,US,6178641144,"","",EST,"",Active
Community Ice Skating at Kendall Square,"",Community Ice Skating at Kendall Square,42.364582,-71.081497,300 Athenaeum St,"",Cambridge,MA,02142,US,6174920941,"","",EST,"",Active
ABC Pizza House,"",ABC Pizza House,42.36607,-71.10545,744 Massachusetts Ave,"",Cambridge,MA,02139,US,6178764607,"","",EST,"",Active
Simply Erinn's Unisex Hair Salon,"",Simply Erinn's Unisex Hair Salon,42.3573925,-71.1076964,268 Brookline St,"",Cambridge,MA,02139,US,6175478098,"","",EST,"",Active
Fresh Pond Reservoir and Park,"",Fresh Pond Reservoir and Park,42.380054473877,-71.1328887939453,Huron Village,"",Cambridge,MA,02138,US,,"","",EST,"",Active
The Harvard Coop Bookstore,"",The Harvard Coop Bookstore,42.3736672752224,-71.1194605278473,1400 Massachusetts Ave,"",Cambridge,MA,02138,US,6174992000,"","",EST,"",Active
Havana Club,"",Havana Club,42.36472427845,-71.1042076349258,288 Green St,"",Cambridge,MA,02138,US,6173125550,"","",EST,"",Active
Lush,"",Lush,42.3727836459875,-71.1199032515287,30 JFK St,"",Cambridge,MA,02238,US,6174975874,"","",EST,"",Active
"Gregory Beale, LMT CPT","","Gregory Beale, LMT CPT",42.3708878,-71.1143799,Harvard Square Acupuncture And Massage,"",Cambridge,MA,02138,US,6173880939,"","",EST,"",Active
For Eyes Optical,"",For Eyes Optical,42.3718710243702,-71.1206515878439,56 John F Kennedy Street,"",Cambridge,MA,02138,US,6178766031,"","",EST,"",Active
City Wine Tours,"",City Wine Tours,42.3733767,-71.1225005,1 Mifflin Pl,"",Cambridge,MA,02138,US,8448798799,"","",EST,"",Active
Joint Ventures Physical Therapy & Fitness,"",Joint Ventures Physical Therapy & Fitness,42.365223839879,-71.0827291756868,Kendall Square,"",Cambridge,MA,02142,US,6175361161,"","",EST,"",Active
Velozo's Food Service,"",Velozo's Food Service,42.3777809,-71.1142273,Divinity Ave,"",Cambridge,MA,02138,US,,"","",EST,"",Active
Bedworks,"",Bedworks,42.3652271926403,-71.1055178940296,15 Western Ave,"",Cambridge,MA,02139,US,6175476000,"","",EST,"",Active
Bao Nation,"",Bao Nation,42.364983,-71.102513,575 Massachusetts Ave,"",Cambridge,MA,02139,US,6175470295,"","",EST,"",Active
Raymond Park,"",Raymond Park,42.386808800916896,-71.1281061172485,Walden St,"",Cambridge,MA,02238,US,,"","",EST,"",Active
Sublime Salon and Spa,"",Sublime Salon and Spa,42.3664207,-71.1051559,751 Mass Ave,"",Cambridge,MA,02139,US,6174922222,"","",EST,"",Active
"Jos Deprimio, DDS","","Jos Deprimio, DDS",42.36794,-71.0816399,121 Charles St,"",Cambridge,MA,02141,US,6174919088,"","",EST,"",Active
Chico's Sunoco Station,"",Chico's Sunoco Station,42.3877296,-71.141777,515 Concord Ave,"",Cambridge,MA,02138,US,6173549494,"","",EST,"",Active
Panera Bread,"",Panera Bread,42.390556945195,-71.1405032873154,174 Alewife Brook Parkway,"",Cambridge,MA,02138,US,6174910890,"","",EST,"",Active
Sudo Shoes,"",Sudo Shoes,42.3853989,-71.1191177,1771 Mass Ave,"",Cambridge,MA,02140,US,6173541771,"","",EST,"",Active
Hair Connection,"",Hair Connection,42.3854294,-71.1195221,1768 Massachusetts Ave,"",Cambridge,MA,02140,US,6173549133,"","",EST,"",Active
Pemberton Farms & Garden Center,"",Pemberton Farms & Garden Center,42.3936991,-71.1259584,2225 Massachusetts Ave,"",Cambridge,MA,02140,US,6174912244,"","",EST,"",Active
P.F. Chang's,"",P.F. Chang's,42.36793,-71.076118,100 CambridgeSide Place,"",Cambridge,MA,02141,US,6172509965,"","",EST,"",Active
Cabbie's Cab,"",Cabbie's Cab,42.3773146139445,-71.1165618896484,Harvard Square,"",Cambridge,MA,02138,US,6175472222,"","",EST,"",Active
Cambridge Naturals,"",Cambridge Naturals,42.38957,-71.11845,Porter Square Shopping Center,"",Cambridge,MA,02140,US,6174924452,"","",EST,"",Active
Stereo Jack's Records,"",Stereo Jack's Records,42.3826484680176,-71.120002746582,1686 Massachusetts Ave,"",Cambridge,MA,02138,US,6174979447,"","",EST,"",Active
Basil Tree Caterers,"",Basil Tree Caterers,42.3894888,-71.1460079,10 Fawcett St,"",Cambridge,MA,02138,US,6177769100,"","",EST,"",Active
Big Picture Framing,"",Big Picture Framing,42.390751,-71.122612,2044 Massachusetts Ave,"",Cambridge,MA,02140,US,6174910011,"","",EST,"",Active
Seyyide Belly Dance,"",Seyyide Belly Dance,42.3715897,-71.1141891,400 Harvard St,"",Cambridge,MA,02138,US,7744739785,"","",EST,"",Active
Judy Jetson,"",Judy Jetson,42.38517,-71.11908,1765 Massachusetts Ave,"",Cambridge,MA,02140,US,6173542628,"","",EST,"",Active
Newbury Comics,"",Newbury Comics,42.3726002090121,-71.1198120443284,36 JFK St,"",Cambridge,MA,02138,US,6174910337,"","",EST,"",Active
Sepal,"",Sepal,42.3588791,-71.0946198,84 Massachusetts Ave,"",Cambridge,MA,02139,US,,"","",EST,"",Active
Central Square Florist,"",Central Square Florist,42.3656385,-71.103674,653 Massachusetts Ave,"",Cambridge,MA,02139,US,8572424008,"","",EST,"",Active
Rebekah Brooks,"",Rebekah Brooks,42.3734398,-71.1203613,17 Brattle St,"",Cambridge,MA,02138,US,6178641639,"","",EST,"",Active
Sound Lion,"",Sound Lion,42.3734106123447,-71.1209412664175,35 Brattle St,"",Cambridge,MA,02138,US,6178645466,"","",EST,"",Active
Hotel Veritas,"",Hotel Veritas,42.3716302961111,-71.1132292449474,1 Remington St,"",Cambridge,MA,02138,US,6175205000,"","",EST,"",Active
WJIB Radio 740,"",WJIB Radio 740,42.3862248659134,-71.1393097043037,443 Concord Ave,"",Cambridge,MA,02138,US,6178687400,"","",EST,"",Active
MIT Furniture Exchange,"",MIT Furniture Exchange,42.3553955554962,-71.1100032180548,350 Brookline St,"",Cambridge,MA,02139,US,6172534293,"","",EST,"",Active
Season to Taste Catering,"",Season to Taste Catering,42.3983116,-71.1310577,2447 Massachusetts Ave,"",Cambridge,MA,02140,US,6178269037,"","",EST,"",Active
Edward Mostone,"",Edward Mostone,42.3655166625977,-71.1044845581055,678 Massachusetts Ave,"",Cambridge,MA,02139,US,6175473500,"","",EST,"",Active
Seven Stars,"",Seven Stars,42.3665008544922,-71.1050109863281,731 Massachusetts Ave,"",Cambridge,MA,02139,US,6175471317,"","",EST,"",Active
Sidney's Grille,"",Sidney's Grille,42.36225,-71.10014,20 Sidney St,"",Cambridge,MA,02139,US,6174940011,"","",EST,"",Active
Joan Lorentz Park,"",Joan Lorentz Park,42.3727601766586,-71.1097202450037,Broadway and Ellery St,"",Cambridge,MA,02138,US,6173496630,"","",EST,"",Active
Doggie Trail,"",Doggie Trail,42.3647559,-71.1032591,Central Square,"",Cambridge,MA,02139,US,7816547152,"","",EST,"",Active
Teriyaki Cafe,"",Teriyaki Cafe,42.3668823963254,-71.0834912682617,Kendall/Marriott Food Court,"",Cambridge,MA,02142,US,6172520789,"","",EST,"",Active
Hair International,"",Hair International,42.3951814323664,-71.1278117448092,2300 Massachusetts Ave,"",Cambridge,MA,02140,US,6178644473,"","",EST,"",Active
Lilypad,"",Lilypad,42.3737984,-71.1000824,1353 Cambridge St,"",Cambridge,MA,02139,US,6179557729,"","",EST,"",Active
Washington Tower,"",Washington Tower,42.3751869,-71.1450272,580 Mount Auburn Street,"",Cambridge,MA,02138,US,,"","",EST,"",Active
Porter Square Family Dental,"",Porter Square Family Dental,42.388095,-71.1201298,14 Upland Rd,"",Cambridge,MA,02140,US,6175473934,"","",EST,"",Active
Menotomy Used Bicycles,"",Menotomy Used Bicycles,42.3724560147857,-71.0789573192596,Cambridge Antique Market Building,"",Cambridge,MA,02141,US,5083443872,"","",EST,"",Active
Harvard Extension School,"",Harvard Extension School,42.3744545,-71.1217194,51 Brattle St,"",Cambridge,MA,02138,US,6174954024,"","",EST,"",Active
Thread & Shape,"",Thread & Shape,42.3729432374239,-71.1174879223108,1316 Massachusetts Ave,"",Cambridge,MA,02138,US,6179457109,"","",EST,"",Active
Bryn Mawr Book Store,"",Bryn Mawr Book Store,42.3813019,-71.1389923,373 Huron Ave,"",Cambridge,MA,02138,US,6176611770,"","",EST,"",Active
Trader Joe's,"",Trader Joe's,42.389915,-71.143448,211 Alewife Brook Pkwy,"",Cambridge,MA,02138,US,6174983201,"","",EST,"",Active
Cambridge Antique Market,"",Cambridge Antique Market,42.37251,-71.07898,201 Monsignor Obrien Hwy,"",Cambridge,MA,02141,US,6178689655,"","",EST,"",Active
Origins,"",Origins,42.3735771179199,-71.1197204589844,8 Brattle St,"",Cambridge,MA,02138,US,6178688090,"","",EST,"",Active
Mass Chicken,"",Mass Chicken,42.36602,-71.10509,736 Massachusetts Ave,"",Cambridge,MA,02139,US,6172344450,"","",EST,"",Active
Acme Ice,"",Acme Ice,42.3779602,-71.1072235,100 Kirkland St,"",Cambridge,MA,02138,US,6175477300,"","",EST,"",Active
Coop Hair Styling,"",Coop Hair Styling,42.3627853393555,-71.0866012573242,3 Cambridge Ctr,"",Cambridge,MA,02142,US,6175778878,"","",EST,"",Active
Ten Thousand Villages,"",Ten Thousand Villages,42.36578,-71.10467,694 Massachusetts Ave,"",Cambridge,MA,02139,US,6178762414,"","",EST,"",Active
Au Bon Pain,"",Au Bon Pain,42.36571,-71.10455,684 Massachusetts Ave,"",Cambridge,MA,02139,US,6174920884,"","",EST,"",Active
Kelley Tree Service,"",Kelley Tree Service,42.37053,-71.08127,Harvard Square,"",Cambridge,MA,02141,US,6179535357,"","",EST,"",Active
Alewife Company,"",Alewife Company,42.3717000335455,-71.099279075861,256 Prospect St,"",Cambridge,MA,02139,US,6178642550,"","",EST,"",Active
Corbu Spa & Salon,"",Corbu Spa & Salon,42.3723605275154,-71.1219383776188,5 Bennett St,"",Cambridge,MA,02138,US,6176615772,"","",EST,"",Active
Kendall Barbers,"",Kendall Barbers,42.3622392117977,-71.0847254097462,238 Main St,"",Cambridge,MA,02142,US,6178761221,"","",EST,"",Active
The Cambridge Center For Adult Education,"",The Cambridge Center For Adult Education,42.373664855957,-71.1216278076172,42 Brattle St,"",Cambridge,MA,02138,US,6175476789,"","",EST,"",Active
Cambridge Children's Dentistry,"",Cambridge Children's Dentistry,42.37558,-71.14445,575 Mount Auburn St,"",Cambridge,MA,02138,US,6174415437,"","",EST,"",Active
Novita Salon & Spa,"",Novita Salon & Spa,42.3907204,-71.1222,2034 Massachusetts Ave,"",Cambridge,MA,02140,US,6174975645,"","",EST,"",Active
Travel Masters Academy,"",Travel Masters Academy,42.3627396,-71.0832825,1 Broadway,"",Cambridge,MA,02142,US,8886827497,"","",EST,"",Active
Kaleidoscope Tattoo & Art Gallery,"",Kaleidoscope Tattoo & Art Gallery,42.3966713,-71.1296692,2374 Massachusetts Ave,"",Cambridge,MA,02140,US,6174418287,"","",EST,"",Active
Richard Marcus-Re/Max Destiny,"",Richard Marcus-Re/Max Destiny,42.3684807,-71.1084366,907 Massachusetts Ave,"",Cambridge,MA,02139,US,,"","",EST,"",Active
"Russell L Forman, DDS","","Russell L Forman, DDS",42.3679161071777,-71.1073150634766,875 Massachusetts Ave,"",Cambridge,MA,02139,US,6178685500,"","",EST,"",Active
Longfellow House Washington's Headquarters,"",Longfellow House Washington's Headquarters,42.3769913,-71.1263733,105 Brattle St,"",Cambridge,MA,02138,US,6178764491,"","",EST,"",Active
Subway,"",Subway,42.372565190723,-71.11949144695001,36 JFK St,"",Cambridge,MA,02138,US,6174410011,"","",EST,"",Active
The Hahvahd Tour,"",The Hahvahd Tour,42.373649597168,-71.1191177368164,Harvard Sq,"",Cambridge,MA,02138,US,8554558747,"","",EST,"",Active
Boomerangs,"",Boomerangs,42.3647919,-71.1020737,563 Massachusetts Ave,"",Cambridge,MA,02139,US,6177586128,"","",EST,"",Active
Mind's Eye Yarns,"",Mind's Eye Yarns,42.3889563,-71.1181058,22 White St,"",Cambridge,MA,02140,US,6173547253,"","",EST,"",Active
J.Crew,"",J.Crew,42.368373866873,-71.0768222808838,100 Cambridgeside Place,"",Cambridge,MA,02141,US,6172252739,"","",EST,"",Active
Cambridge Brewing Company,"",Cambridge Brewing Company,42.3664391378448,-71.0912921367735,1 Kendall Sq,"",Cambridge,MA,02139,US,6174941994,"","",EST,"",Active
Edward Sennott Park,"",Edward Sennott Park,42.3683500865934,-71.09982490539551,Broadway,"",Cambridge,MA,02139,US,,"","",EST,"",Active
Tokai Japanese Gifts,"",Tokai Japanese Gifts,42.3873952061215,-71.1189651489258,1815 Massachusetts Ave,"",Cambridge,MA,02140,US,6178645922,"","",EST,"",Active
Kendall Press,"",Kendall Press,42.3622513,-71.0802994,1 Main St,"",Cambridge,MA,02142,US,6172093246,"","",EST,"",Active
The Garment District,"",The Garment District,42.3658294677734,-71.093017578125,200 Broadway,"",Cambridge,MA,02139,US,6178765230,"","",EST,"",Active
Thistle & Shamrock,"",Thistle & Shamrock,42.3889885,-71.1247635,62 Walden St,"",Cambridge,MA,02140,US,6174922522,"","",EST,"",Active
Eastern Mountain Sports,"",Eastern Mountain Sports,42.37328,-71.12147,One Brattle Square,"",Cambridge,MA,02138,US,6178642061,"","",EST,"",Active
Mumbai Chopstix,"",Mumbai Chopstix,42.365013,-71.102409,575 Massachusetts Ave,"",Cambridge,MA,02139,US,6179274444,"","",EST,"",Active
Made by Me,"",Made by Me,42.3828,-71.1193399,1685 Massachusetts Ave,"",Cambridge,MA,02138,US,6173548111,"","",EST,"",Active
Modern Homebrew Emporium,"",Modern Homebrew Emporium,42.3950806,-71.1279831,2304 Massachusetts Ave,"",Cambridge,MA,02140,US,6174980400,"","",EST,"",Active
East Coast Barber Shop,"",East Coast Barber Shop,42.3713,-71.08025,261 Cambridge St,"",Cambridge,MA,02141,US,6178685581,"","",EST,"",Active
Microsoft New England Research and Development Center,"",Microsoft New England Research and Development Center,42.3613586,-71.0812607,1 Memorial Dr,"",Cambridge,MA,02142,US,8574536000,"","",EST,"",Active
Crate-Escape,"",Crate-Escape,42.3810668,-71.1385716,368 Huron Ave,"",Cambridge,MA,02138,US,6173549003,"","",EST,"",Active
Threla,"",Threla,42.3717563599348,-71.0858787596226,574  Cambridge St,"",Cambridge,MA,02141,US,6178760811,"","",EST,"",Active
Zephyr On the Charles,"",Zephyr On the Charles,42.354247,-71.105386,575 Memorial Dr,"",Cambridge,MA,02139,US,6174416510,"","",EST,"",Active
Jesse Struebing Golf,"",Jesse Struebing Golf,42.3593178,-71.0962143,Zesiger Athletic Center,"",Cambridge,MA,02139,US,7162288845,"","",EST,"",Active
Stellabella Toys,"",Stellabella Toys,42.3734509,-71.1001553,1360 Cambridge St,"",Cambridge,MA,02139,US,6174916290,"","",EST,"",Active
Central Square Farmers Market,"",Central Square Farmers Market,42.3652224978748,-71.1012890987021,Bishop Allen Drive & Norfolk Street,"",Cambridge,MA,02139,US,7818938222,"","",EST,"",Active
WMBR 88.1 FM,"",WMBR 88.1 FM,42.3591755,-71.087723,142 Memorial Dr,"",Cambridge,MA,02142,US,6172538810,"","",EST,"",Active
Starbucks,"",Starbucks,42.388811420427,-71.142395676946,220 Alewife Brook Pkwy,"",Cambridge,MA,02138,US,6178761070,"","",EST,"",Active
Elliot's House Pet Care + More,"",Elliot's House Pet Care + More,42.3915213,-71.1238692,485 Massachusetts Ave,"",Cambridge,MA,02139,US,6178009421,"","",EST,"",Active
TK Photographers,"",TK Photographers,42.3932609558105,-71.1345367431641,North Cambridge,"",Cambridge,MA,02140,US,6173807416,"","",EST,"",Active
"Albrecht Immigration Strategies, P.C.","","Albrecht Immigration Strategies, P.C.",42.3733999,-71.12254,1 Mifflin Place,"",Cambridge,MA,02138,US,3392211077,"","",EST,"",Active
"Amy McGaraghan, MD","","Amy McGaraghan, MD",42.374133,-71.134215,Mount Auburn Hospital,"",Cambridge,MA,02138,US,6174995151,"","",EST,"",Active
Saladworks,"",Saladworks,42.367916,-71.075714,100 Cambridgeside Pl,"",Cambridge,MA,02141,US,6173748888,"","",EST,"",Active
H Mart,"",H Mart,42.3650219,-71.1027564,581 Massachusetts Ave,"",Cambridge,MA,02139,US,8572092747,"","",EST,"",Active
Pemberton Garden Services,"",Pemberton Garden Services,42.3937171,-71.1259786,2225 Massachusetts Ave,"",Cambridge,MA,02140,US,6174470606,"","",EST,"",Active
Eddie Priest Men's Hairstylist,"",Eddie Priest Men's Hairstylist,42.36434,-71.10759,89 River St,"",Cambridge,MA,02139,US,6173548912,"","",EST,"",Active
Karma Yoga Studio,"",Karma Yoga Studio,42.3706398,-71.1139603,1120 Massachusetts Ave,"",Cambridge,MA,02138,US,6175479642,"","",EST,"",Active
Raspberry Beret,"",Raspberry Beret,42.3831291,-71.1197433,1704 Mass Ave,"",Cambridge,MA,02138,US,6173543700,"","",EST,"",Active
The Boston Bed Company,"",The Boston Bed Company,42.3719380795956,-71.0865915566683,625 Cambridge St,"",Cambridge,MA,02141,US,6174915818,"","",EST,"",Active
Mount Auburn Hospital Walk-In Clinic,"",Mount Auburn Hospital Walk-In Clinic,42.3742409,-71.1343231,330 Mount Auburn St,"",Cambridge,MA,02138,US,6174995065,"","",EST,"",Active
Great Eastern Trading Company,"",Great Eastern Trading Company,42.3646114,-71.1065724,49 River St,"",Cambridge,MA,02139,US,6173545279,"","",EST,"",Active
Tajine,"",Tajine,42.370620444417,-71.1135618388653,1105 Massachusetts Ave,"",Cambridge,MA,02138,US,6175202080,"","",EST,"",Active
Utso Tibetan Boutique,"",Utso Tibetan Boutique,42.38284,-71.11942,1691 Massachusetts Ave,"",Cambridge,MA,02138,US,6174922950,"","",EST,"",Active
Sam Davis Guitar Lessons,"",Sam Davis Guitar Lessons,42.3647559,-71.1032591,"393 Broadway, Apt. B.S","",Cambridge,MA,02139,US,6174970830,"","",EST,"",Active
Oxford Street Realty,"",Oxford Street Realty,42.3811913,-71.1199799,1644 Massachusetts Ave,"",Cambridge,MA,02138,US,6173543535,"","",EST,"",Active
Bromberg Chiropractic,"",Bromberg Chiropractic,42.3659500479698,-71.0923958569765,201 Broadway,"",Cambridge,MA,02139,US,6174941166,"","",EST,"",Active
Charles Riverboat Company,"",Charles Riverboat Company,42.367916,-71.075714,100 Cambridgeside Pl,"",Cambridge,MA,02141,US,6176213001,"","",EST,"",Active
beyt by 2b design home LLC,"",beyt by 2b design home LLC,42.3747178,-71.1285906,185 Mount Auburn St,"",Cambridge,MA,02138,US,6174018415,"","",EST,"",Active
Boston Swing Central,"",Boston Swing Central,42.3879585,-71.1405716,Extreme Dancesport,"",Cambridge,MA,02138,US,,"","",EST,"",Active
A-Z Auto Center,"",A-Z Auto Center,42.3885498,-71.1227798,47-51 Richdale Ave,"",Cambridge,MA,02140,US,6173543680,"","",EST,"",Active
Walden Cleaners,"",Walden Cleaners,42.3913307,-71.123497,2090 Massachusetts Ave,"",Cambridge,MA,02140,US,6178685988,"","",EST,"",Active
Xylem,"",Xylem,42.365395501256,-71.0826386511326,287 3rd St,"",Cambridge,MA,02142,US,6174949953,"","",EST,"",Active
Mint Julep,"",Mint Julep,42.374321,-71.1192627,6 Church St,"",Cambridge,MA,02138,US,6175766468,"","",EST,"",Active
CW Taekwondo,"",CW Taekwondo,42.3649216,-71.1032333,600R Massachusetts Ave,"",Cambridge,MA,02139,US,6178764853,"","",EST,"",Active
Abodeon,"",Abodeon,42.38418,-71.11928,1731 Massachusetts Ave,"",Cambridge,MA,02138,US,6174970137,"","",EST,"",Active
Harvest Co-Op Markets,"",Harvest Co-Op Markets,42.36452,-71.10306,580 Massachusetts Ave,"",Cambridge,MA,02139,US,6176611580,"","",EST,"",Active
Ligris + Associates - The Shargel Group,"",Ligris + Associates - The Shargel Group,42.3726931214333,-71.1166175454855,1280 Massachusetts Ave,"",Cambridge,MA,02138,US,6172741500,"","",EST,"",Active
Lizzy's Ice Cream,"",Lizzy's Ice Cream,42.3744892109017,-71.1201211285006,29 Church St,"",Cambridge,MA,02138,US,6173542911,"","",EST,"",Active
Michaels,"",Michaels,42.389212,-71.117834,37 White St,"",Cambridge,MA,02140,US,6174990925,"","",EST,"",Active
Montrose Spa,"",Montrose Spa,42.3814109712839,-71.11981138587,1646 Massachusetts Ave,"",Cambridge,MA,02138,US,6175475053,"","",EST,"",Active
Central Square Theater,"",Central Square Theater,42.3636436,-71.1010284,450 Mass Ave,"",Cambridge,MA,02139,US,6175769278,"","",EST,"",Active
Andre Hair Salon,"",Andre Hair Salon,42.371685,-71.1151581,1206 Massachusetts Ave,"",Cambridge,MA,02138,US,6173545210,"","",EST,"",Active
Tat On Auto Service,"",Tat On Auto Service,42.36088,-71.10469,125 Brookline St,"",Cambridge,MA,02139,US,6178763218,"","",EST,"",Active
Cambridge Athletic Club,"",Cambridge Athletic Club,42.3642921447754,-71.0792541503906,215 1st St,"",Cambridge,MA,02142,US,6174918989,"","",EST,"",Active
Drinkwater's,"",Drinkwater's,42.3916034,-71.1232668,2067 Massachusetts Ave,"",Cambridge,MA,02140,US,6175472067,"","",EST,"",Active
Gold Star Mothers Park,"",Gold Star Mothers Park,42.3723780364821,-71.0846122336847,Gore St At 6th St,"",Cambridge,MA,02238,US,,"","",EST,"",Active
Cambridge Instant Shoe Repair,"",Cambridge Instant Shoe Repair,42.370620444417,-71.1135618388653,1105 Massachusetts Ave,"",Cambridge,MA,02138,US,6174983200,"","",EST,"",Active
Harvard Square,"",Harvard Square,42.3740672,-71.1188,18 Brattle St,"",Cambridge,MA,02138,US,6174913434,"","",EST,"",Active
Dunkin' Donuts,"",Dunkin' Donuts,42.374382062356695,-71.1186540126801,1400 Massachusetts Ave,"",Cambridge,MA,02163,US,6179726100,"","",EST,"",Active
Xmortis,"",Xmortis,42.3637157678604,-71.1016333848238,TT The Bear's,"",Cambridge,MA,02238,US,,"","",EST,"",Active
Le Méridien Cambridge-MIT,"",Le Méridien Cambridge-MIT,42.3620242125342,-71.1001253128052,20 Sidney Street,"",Cambridge,MA,02139,US,6175770200,"","",EST,"",Active
Antonina Bodywork,"",Antonina Bodywork,42.3675535,-71.1075838,872 Massachusetts Ave,"",Cambridge,MA,02139,US,6172336871,"","",EST,"",Active
Hair Collage,"",Hair Collage,42.3665280640125,-71.1054991185665,759 Massachusetts Ave,"",Cambridge,MA,02139,US,6173544660,"","",EST,"",Active
"Abram Ojure, Lic. Ac., MAOM, Dipl. OM","","Abram Ojure, Lic. Ac., MAOM, Dipl. OM",42.3700359,-71.1023459,Ojure Acupuncture at Cambridge Health Associates,"",Cambridge,MA,02139,US,6172978549,"","",EST,"",Active
Kendall Hotel,"",Kendall Hotel,42.3622665405273,-71.0872268676758,350 Main St,"",Cambridge,MA,02142,US,6175771300,"","",EST,"",Active
Planet Records,"",Planet Records,42.3738212585449,-71.1248016357422,144 Mt Auburn St,"",Cambridge,MA,02138,US,6174920693,"","",EST,"",Active
Dudley & Borland Ellis & Andrews Insurance Agency,"",Dudley & Borland Ellis & Andrews Insurance Agency,42.3733358216216,-71.1207890510559,30 Brattle St,"",Cambridge,MA,02138,US,6178762440,"","",EST,"",Active
Charles River Canoe & Kayak,"",Charles River Canoe & Kayak,42.3628764043111,-71.0821458275086,15 Broad Canal St,"",Cambridge,MA,02142,US,6179655110,"","",EST,"",Active
VIM Fitness Central Square,"",VIM Fitness Central Square,42.3650684,-71.1025856,579 Massachusetts Ave,"",Cambridge,MA,02139,US,6179452708,"","",EST,"",Active
Hallie's Flower Garden,"",Hallie's Flower Garden,42.3814512044191,-71.1337897181511,248 Huron Ave,"",Cambridge,MA,02138,US,6173548000,"","",EST,"",Active
Couture Nail and Spa,"",Couture Nail and Spa,42.3729029,-71.1205624,99 Mount Auburn St,"",Cambridge,MA,02138,US,6177143616,"","",EST,"",Active
Mother Juice,"",Mother Juice,42.364514274473,-71.0819436749922,625 W Kendall,"",Cambridge,MA,02142,US,6172866580,"","",EST,"",Active
Setravision,"",Setravision,42.3662012,-71.0993754,15B Suffolk St,"",Cambridge,MA,02139,US,6178586422,"","",EST,"",Active
Porter Square,"",Porter Square,42.38871,-71.11956,Somerville Ave & Massachusetts Ave,"",Cambridge,MA,02140,US,,"","",EST,"",Active
Walker Dental,"",Walker Dental,42.3745994567871,-71.1224212646484,60 Brattle St,"",Cambridge,MA,02138,US,6173543351,"","",EST,"",Active
Healthworks Fitness Centers For Women,"",Healthworks Fitness Centers For Women,42.3888275630781,-71.1188884190376,Porter Square Shopping Center,"",Cambridge,MA,02138,US,6174974454,"","",EST,"",Active
Leonard Stephen Salon,"",Leonard Stephen Salon,42.37188,-71.1204319,54 JFK St,"",Cambridge,MA,02138,US,6174418220,"","",EST,"",Active
Pacheco Jewelers,"",Pacheco Jewelers,42.3719899,-71.08636,599 Cambridge St,"",Cambridge,MA,02141,US,6174940501,"","",EST,"",Active
Pure Line Skin Care,"",Pure Line Skin Care,42.3718321323395,-71.1206844449043,Harvard Sq,"",Cambridge,MA,02138,US,6178687873,"","",EST,"",Active
A Dog's Life Boston,"",A Dog's Life Boston,42.3722,-71.1115189,Trowbridge St,"",Cambridge,MA,02138,US,9785051290,"","",EST,"",Active
Magazine Beach Shell Service,"",Magazine Beach Shell Service,42.35674,-71.11418,207 Magazine St,"",Cambridge,MA,02139,US,6173545565,"","",EST,"",Active
CHA Cambridge Family Health North,"",CHA Cambridge Family Health North,42.3932609558105,-71.1345367431641,2067 Mass. Ave,"",Cambridge,MA,02140,US,6175755570,"","",EST,"",Active
Jason B Cohen,"",Jason B Cohen,42.365517,-71.104485,Pressman & Kruskal,"",Cambridge,MA,02139,US,6174922211,"","",EST,"",Active
Upward Spiral Studio,"",Upward Spiral Studio,42.3667,-71.10431,7 Temple St,"",Cambridge,MA,02139,US,6174912940,"","",EST,"",Active
Savvy Hair Design,"",Savvy Hair Design,42.37327,-71.09798,1232 Cambridge St,"",Cambridge,MA,02139,US,6173548344,"","",EST,"",Active
Pandemonium Books & Games,"",Pandemonium Books & Games,42.3661430463208,-71.1056370762216,4 Pleasant St,"",Cambridge,MA,02139,US,6175473721,"","",EST,"",Active
Dazzling Nail Care,"",Dazzling Nail Care,42.3959884643555,-71.1282806396484,2327 Massachusetts Ave,"",Cambridge,MA,02140,US,6176614734,"","",EST,"",Active
Threading Station,"",Threading Station,42.3723488,-71.1216202,12 Eliot St,"",Cambridge,MA,02138,US,6178688700,"","",EST,"",Active
Bertucci's,"",Bertucci's,42.3948798952945,-71.1415786145616,5 Cambridge Park Dr,"",Cambridge,MA,02140,US,6178762200,"","",EST,"",Active
Out of Town News,"",Out of Town News,42.373351673884,-71.1187934875488,Harvard Sq,"",Cambridge,MA,02138,US,6173541441,"","",EST,"",Active
Image Care Electrolysis,"",Image Care Electrolysis,42.3736991882324,-71.1020584106445,1426 Cambridge St,"",Cambridge,MA,02139,US,6178646243,"","",EST,"",Active
Porter Square MBTA Station - Red Line,"",Porter Square MBTA Station - Red Line,42.388461,-71.119196,868 Somervilie Ave,"",Cambridge,MA,02139,US,6172223200,"","",EST,"",Active
Residence Inn Boston Cambridge,"",Residence Inn Boston Cambridge,42.3638916,-71.08815,6 Cambridge Ctr,"",Cambridge,MA,02142,US,6173490700,"","",EST,"",Active
Sollievo Massage and Bodywork,"",Sollievo Massage and Bodywork,42.3950556,-71.1273638,2285 Massachusetts Ave,"",Cambridge,MA,02140,US,6173543082,"","",EST,"",Active
Pinkberry,"",Pinkberry,42.3733349189598,-71.1190511688471,1380 Massachusetts Ave,"",Cambridge,MA,02138,US,6175470573,"","",EST,"",Active
Fitlab Pilates,"",Fitlab Pilates,42.3737215,-71.0993798,1305 Cambridge St,"",Cambridge,MA,02139,US,6179457317,"","",EST,"",Active
Noodle Stix,"",Noodle Stix,42.3749313,-71.1506577,11 Belmont St,"",Cambridge,MA,02138,US,6178681800,"","",EST,"",Active
Simeon's Fine Tailoring,"",Simeon's Fine Tailoring,42.36611,-71.10292,112 Bishop Rchrd Alln Dr,"",Cambridge,MA,02139,US,6173545170,"","",EST,"",Active
Lechmere Rug,"",Lechmere Rug,42.372241600811,-71.079398775253,200 Monsignor Obrien Hwy,"",Cambridge,MA,02141,US,6178769700,"","",EST,"",Active
